BUSINESS NAME, PHONE, WEB, EMAIL, STREET, SUBURB, STATE, POSTCODE, GPS LATITUDE, GPS LONGITUDE
Ah&amp;S Cabinetry,0417 323 898,,,11 Mackrell Pl,ACT,Calwell,2905,-35.445451, 149.099752
mkz interiors,0412 268 722,,,,,,,-35.3407628, 149.1315091
Phil McDonald,0418 462 112,,philmcdonald@fastmail.com.au,13 Threlfall St,ACT,Chifley,2606,-35.355438, 149.077591
Select Custom Joinery,,,mail@selectcustomjoinery.com.au,1182 Wallaroo Rd,ACT,Hall,2618,-35.173663, 149.059241
Vibrant Kitchens,0406 234 281,,,,,,,-35.2153575, 149.1415141
A Better Display System,(02) 9971 5900,,,Unit 4/ 17 Villiers Pl,NSW,Cromer,2099,-33.73606, 151.28825
Adlard John &amp; Son,(02) 9521 2622,,,32- 34 Flora St,NSW,Kirrawee,2232,-34.03445, 151.07299
Alfred Zahra Joinery,(02) 9556 2185,,,365 West Botany St,NSW,Rockdale,2216,-33.95727, 151.14581
Arena's Woodwork Pty Ltd,0418 297 125,,,14 Woodman Pl,NSW,Abbotsbury,2176,-33.87703, 150.86378
Ace Fitouts,0401 085 400,,,,,,,-33.5186191, 150.7110046
AC Kitchens&nbsp;&nbsp;,0404 729 966,,ac.kitchens@hotmail.com,,,,,-33.9200192, 150.9241267
Action Carpentry &amp; Joinery,(02) 9905 6683,,info@actioncarpentryandjoinery.com.au,,,,,-33.7623885, 151.2712749
A.J. CUSTOM,0432 640 803,,ajcustom2021@gmail.com,1413 George Booth Dr,NSW,Buchanan,2323,-32.847672, 151.522166
Alamo Kitchens,(02) 9601 5897,,,163 Newbridge Rd,NSW,Moorebank,2170,-33.928658, 150.962699
ALCOP ALUMINIUM AND WOODWORK,0435 465 417,,alcopaluminium@gmail.com,,,,,-34.0848661, 150.8121725
Allfitz Kitchens,0413 702 427,,,,,,,-33.1079542, 151.488845
ANDIOLI GROUP PTY LTD,0416 685 666,,,,,,,-33.67779457, 150.94430243
Andrew's Cabinets &amp; Joinery,(02) 4759 2291,,,50 Christabel St,NSW,Lawson,2783,-33.723148, 150.437374
Arkade Interiors Pty Ltd,(02) 9679 2420,,kim@arkadeinteriors.com.au,Unit 26/322 Annangrove Road,NSW,Rouse Hill,2155,-33.666167, 150.91964
Artes Decor,0419 629 008,,,50 Ladera Dr,NSW,Copacabana,2251,-33.48745, 151.426219
Attard's Cabinetry Pty Ltd,(02) 9838 8608,,alison@attards.com.au,7 Bonz Pl,NSW,Seven Hills,2147,-33.773138, 150.955199
Action Carpentry &amp; Joinery Services,(02) 9878 6683,,info@actioncarpentryandjoinery.com.au,,,,,-33.7623885, 151.2712749
Alex Bulyk Joinery,0415 789 432,,,45 Warrigal Rd,NSW,Kurrajong,2758,-33.48164, 150.72643
Anthony Connor Cabinet Making &amp; Joinery,0467 372 717,,amconnor11@telstra.com,,,,,-33.4880483, 149.5469738
AWL Cabinetry,0450 762 171,,,,,,,-33.7493738, 150.9158006
Ballina Kitchen Wizards,0412 765 960,,,,,,,
Best Built In Wardrobes,0420 251 211,,bestbuiltinwardrobes@hotmail.com,163 Hector St,NSW,Sefton,2162,-33.889381, 151.005978
BOUSTEAD BROWN ENTERPRISES,0406 485 286,,kevin@bousteadandbrown.com.au,Unit 5 17 King Rd,NSW,Hornsby,2077,-33.698032, 151.10966
Buda C &amp; M Pty Ltd,(02) 9150 6138,,,165 Kingsgrove Rd,NSW,Kingsgrove,2208,-33.935359, 151.099453
Ballina Pre-Cut Board &amp; Kitchens,(02) 6686 8979,,,3/ 9 De Havilland Crst,NSW,Ballina,2478,-28.845326, 153.553232
Bellwood Kitchens,(02) 9756 6047,,contactus@bellwoodkitchens.com.au,Unit 28/ 93-97 Newton Rd,NSW,Wetherill Park,2164,-33.84845, 150.89228
BM CABINETRY,0427 281 253,,,1184 Spring Grove Rd,NSW,Spring Grove,2470,-28.839864, 153.094068
Border Rangers Cabinets,(02) 6636 4323,,,936 Roseberry Creek Rd,NSW,Kyogle,2474,-28.461832, 152.808545
Brescia Kitchens Pty Ltd,(02) 9725 1686,,bresciakitchens@gmail.com,229 Cowpasture Rd,NSW,Wetherill Park,2164,-33.84814, 150.87795
Bruce Smith Cabinets,(02) 6672 3532,,info@brucesmithcabinets.com.au,38 Kyogle Rd,NSW,Murwillumbah,2484,-28.340674, 153.375463
Built to Desire Kitchens &amp; Cabinetry,0405 010 391,,builttodesire@yahoo.com,,,,,-34.0321302, 150.7302739
Beny's Kitchens,(02) 4283 6000,,,32 Kingsford St,NSW,Fairy Meadow,2519,-34.388777, 150.895601
Boree Cabinets,0427 535 567,,,20 Massey Ave,NSW,Leeton,2705,-34.54763, 146.39152
B &amp; S Kitchens,(02) 6642 3064,,made@bandskitchens.com.au,32 Hyde Street (off Armidale Rd),NSW,South Grafton,2460,-29.726892, 152.940855
Bulmers Cabinet Makers,(03) 5881 1700,,,483 Saleyards Rd,NSW,Deniliquin,2710,-35.547127, 144.948587
Cabinet Concepts,(02) 4739 8651,,cabinet.concepts@hotmail.com,Unit 1 11 Attunga Rd,NSW,Blaxland,2774,-33.73734, 150.60932
Castlereagh Cabinets,(02) 6848 5885,,castlereaghcabinets@gmail.com,255 Bardens Rd,NSW,Curban,2827,-31.532203, 148.521189
Coastwide Kitchens and Cabinetry,0420 779 128,,n.cafaro14@gmail.com,,,,,-34.0364575, 151.0847863
Cring Design Pty Ltd,(02) 9634 7269,,,,,,,-33.72510369, 151.00187631
Cabinetry Excellence,0416 293 666,,,,,,,-33.7615158, 150.9309433
Cabinet Solutions Plus Pty Ltd,(02) 9792 8338,,,U 2/ 17 Sheridan Cl,NSW,Milperra,2214,-33.932244, 150.995416
Cabworx,(02) 6040 5007,,,909 Metry St,NSW,North Albury,2640,-36.065386, 146.944961
Caldera Kitchens and Bathrooms,0499 003 809,,calderakitchens2019@gmail.com,,,,,-28.4252853, 153.3810014
Canaus Design Pty Ltd,(02) 8798 1343,,,,,,,-33.9984845, 150.8660859
Captive Cabinet Making,(02) 9905 4468,,andrew@captivecabinetmaking.com.au,2/10 Wattle Rd,NSW,Brookvale,2100,-33.768, 151.27793
CB Joinery P/L,0401 660 290,,,,,,,-34.0855912, 150.8019225
Central Coast Laminate,(02) 4332 3203,,,Rear 384 The Entrance Rd,NSW,Long Jetty,2261,-33.36276, 151.48071
Chave Phillip Cabinets,(02) 6686 4656,,,Unit 2 44 Dehavilland Dr,NSW,Ballina,2478,-28.848297, 153.55592
Christo Kubler,0431 986 623,,christo.kubler@gmail.com,,,,,-32.7512547, 151.5895846
City Custom Cabinets,0403 282 740,,citycustomcabinets@gmail.com,5 10-12 Hearne St,NSW,Mortdale,2223,-33.964789, 151.067173
Claremont Joinery,(02) 9790 2344,,,6 Fortril Ave,NSW,Bankstown,2200,-33.9338, 151.036017
Compass Cabinets &amp; Maintenance,(02) 4353 9398,,,,,,,-33.2920124, 151.4687098
Constantain Kitchens,(02) 9740 7147,,,714 Cnr Nelson Avenue and Canterbury Road,NSW,Belmore,2192,-33.92409, 151.09187
Coral Design Kitchens,(02) 9793 1628,,,D 4/11- 15 Moxon Rd,NSW,Punchbowl,2196,-33.93419, 151.04183
Crafty Kabinets,(02) 9547 0055,,,1/ 59 Planthurst Rd,NSW,Carlton,2218,-33.978002, 151.113665
Creatick Kitchens,0449 624 741,,creatick.kitchens@hotmail.com,,,,,-33.8541009, 150.9865844
Creative Cabinetry,0418 965 289,,davidf@creative-cabinetry.com.au,,,,,-33.7623885, 151.2712749
Cummins Joinery (Sales) Pty Ltd,(02) 9533 1066,,,1 Lorraine St,NSW,Peakhurst,2210,-33.963769, 151.061047
Custom Display Solutions.,0425 841 263,,info@customdisplaysolutions.com.au,1/ 7 Carrington Rd,NSW,Castle Hill,2154,-33.728161, 150.984168
Customizer Kitchens,(02) 9790 4696,,,45 Birch St,NSW,Condell Park,2200,-33.917936, 150.998326
Cutting Edge Kitchens &amp; Cabinet making,(02) 9938 6239,,kitchens@cutting.net.au,Unit 2 B 130 Old Pittwater Rd,NSW,Brookvale,2100,-33.76732, 151.26028
Carls Kitchens,1300 740 558,,info@carlskitchens.com.au,Unit 4 9 Bradfield St,NSW,Leumeah,2560,-34.057519, 150.837724
Coastline Kitchens,(08) 9550 1800,,,4 Smeaton Way, WA,Rockingha,6168,-32.272018, 115.752306
Creative Carpentry,0418 965 289,,,,,,,-33.7839076, 151.2672573
Cyrus Cabinets,0466 999 772,,,264 Marsden Rd,NSW,Carlingford,2118,-33.788486, 151.061818
Dana Kitchens,0417 661 777,,,521 Sullivans Rd,NSW,Yamba,2464,-29.447162, 153.341554
Design Affair,(02) 9630 6102,,,3 Richard Cl,NSW,North Rocks,2151,-33.773129, 151.006974
DK Construction Interiors,0424 635 544,,dkcinteriors@gmail.com,Shop 2/ 474 Forest Rd,NSW,Bexley,2207,-33.951601, 151.125236
Drams Design Pty Ltd,(02) 9822 2551,,,Unit 4/ 17 Regent Crst,NSW,Moorebank,2170,-33.9353116, 150.93940285
Dave Cowan Cabinetry Pty Ltd,0410 790 720,,dave@dccabinetry.com.au,,,,,-28.8642401, 153.0456834
David Hanckel Cabinets,(02) 6025 6797,,reception@dhcabinets.com.au,898 Metry St,NSW,Albury North,2640,-36.06412, 146.947061
Design Building Services,(02) 4571 2333,,,Unit 3/ 34 Elizabeth St,NSW,North Richmond,2754,-33.57851, 150.71448
Designer Image Robes,(02) 9542 2444,,,Unit 38/ 398 The Boulevarde,NSW,Kirrawee,2232,-34.027459, 151.079258
D &amp; L Furness Pty Ltd,0407 932 160,,,Unit 5 / 11 Priestley St,NSW,Mittagong,2575,-34.450604, 150.434901
DMT Cabinetmaking &amp; Joinery,0448 027 363,,,102 Miller St,NSW,Pyrmont,2009,-33.869764, 151.192151
Dreamland Kitchens,(02) 9892 3411,,,187 Military Rd,NSW,Guildford,2161,-33.860937, 150.976915
Dr Phill's Kitchens &amp; Cabinetry,(02) 9652 1055,,phill@drphill.com.au,,,,,-33.6016181, 151.007894
Davis JR &amp; AL,0416 259 045,,,1/1 Dumaresq St,NSW,West Wyalong,2671,-33.91309, 147.20308
DIY Kitchen (Rattans),0493 409 130,,,51-53 Fitzpatrick St,NSW,Revesby,2212,-33.938594, 151.003418
Drams Design,(02) 9785 9443,,info@drams.com.au,Unit 4/ 32 Seton Rd,NSW,Moorebank,2170,-33.935086, 150.938996
D &amp; S Tancred Kitchens,(02) 6889 4111,,,5 Macquarie Dr,NSW,Narromine,2821,-32.238152, 148.256041
Eadie Cabinet Making,0409 601 052,,eadies@hotmail.com,4-3 Willis Rd,NSW,Woolgoolga,2456,-30.12428, 153.19361
ELBALQA JOINERY,0420 555 284,,Bassam@elbalqajoinery.com.au,,,,,
Evans Head Cabinetmaking,0428 262 516,,justin.t.crisp@gmail.com,15 Canberra Rd,NSW,Evans Head,2473,-29.105246, 153.424918
Expert Interiors &amp; Fitouts,0422 987 805,,,,,,,-33.9560787, 150.9552762
Furness Cabinet Making PTY LTD,0414 628 345,,,Unit 5 / 11 Priestley St,NSW,Mittagong,2575,-34.450604, 150.434901
Gabriel Rancan,(02) 9649 4707,,gabriel@rancan.com.au,23 East St,NSW,Lidcombe,2141,-33.86649, 151.04728
Geoff England Custom Cabinets Pty Ltd,(02) 9940 0316,,,,,,,-33.67440769, 151.30090368
G &amp; K Cabinets,(03) 9725 2274,,,Factory 4/ 18 Jesmond Rd,VIC,Croydon,3136,-37.80591, 145.28236
Global Kitchens,(02) 9529 2154,,,16 Dillon St,NSW,Ramsgate,2217,-33.983626, 151.138182
G &amp; A Cabinets,(02) 6652 8836,,,14 O'Keefe Dr,NSW,Coffs Harbour,2450,-30.31683, 153.09975
George's Kitchens,(02) 9519 1167,,info@georgeskitchens.com.au,4 Chapel St,NSW,Marrickville,2204,-33.908615, 151.166328
Glenn Russell Cabinetry,0429 669 044,,,123 Gunnedah Rd,NSW,Taminda,2340,-31.097527, 150.894317
Glory Interiors Pty Ltd,(02) 9750 7563,,,37 Hugh St,NSW,Belmore,2192,-33.90912, 151.07833
Hindmarsh David Kitchens &amp; Joinery,(02) 6925 5525,,wkwc@bigpond.com,14 Cheshire St,NSW,Wagga Wagga,2650,-35.124844, 147.346477
Illawarra Kitchens,(02) 4272 3345,,,16 Glastonbury Ave,NSW,Unanderra,2526,-34.45787, 150.85616
Instyle Kitchen &amp; Bathroom Renovation,(02) 9672 7288,,,Unit 9/ 70 Holbeche Rd,NSW,Arndell Park,2148,-33.7906, 150.88958
Inwood Pty Ltd (Custom Cabinets),0415 238 675,,,47/ 5 Ponderosa Parade,NSW,Warriewood,2102,-33.679091, 151.289293
I Space Solutions,0419 969 777,,javier@ispacesolutions.com.au,,,,,
Infinity Kitchens &amp; Joinery,0451 515 460,,info@infinitykitchens.com.au,12/ 61 Thurralilly St,NSW,Queanbeyan East,2620,-35.343967, 149.246416
Interior Woodworks Pty Ltd,(02) 9833 8322,,,16 Severn St, St Marys Nsw 2760,NSW,St Marys,2760,-33.751033, 150.770266
INZ Kitchens,(02) 9607 5511,,sales@inzkitchens.com.au,Unit 22 314 Hoxton Park Rd,NSW,Prestons,2170,-33.92887, 150.88596
ITF Cabinet Making &amp; Joinery,(02) 9531 5511,,,17/ 4 Ethel Rd,NSW,Kirrawee,2232,-34.024827, 151.079931
Jordan Phil &amp; Lyn,(02) 4932 6356,,,36 Gillieston Rd,NSW,Maitland,2320,-32.752298, 151.533815
KAM Australia,1800 730 526,,sales@kamaustralia.com.au,,,,,-28.819991, 153.3284519
Kel's Cabinets,0419 414 024,,,Lot 26A Unit 2 Stockwell Rd,NSW,Jindera,2642,-35.972228, 146.898242
K.M.Laws Cabinetmaking of Sydney,0414 336 480,,,Boomerang Dr,NSW,Glossodia,2756,-33.528561, 150.778055
Kreative Kitchens and Joinery,(02) 4932 5807,,,,,,,-32.729312, 151.536015
Keen Furniture,(02) 6881 8801,,,134 Derribong St,NSW,Narromine,2821,-32.23529, 148.24013
Kenwood For Kitchens &amp; Bathrooms,(02) 9712 2488,,,50 Great North Rd,NSW,Five Dock,2046,-33.870683, 151.129524
Koschel G J,(03) 5883 1576,,,71 McAllister St,NSW,Finley,2713,-35.647207, 145.579716
Kelly's Cabinets &amp; Joinery,(02) 4572 1927,,vjkelly2@gmail.com,264 Cabbage Tree Rd,NSW,Grose Vale,2753,-33.604029, 150.645183
Kimberley Cabinets,0428 649 394,,,,,,,-33.705238, 151.1231054
Kreative Kitchens,0418 862 710,,kevin@kreativekitchens.com.au,,,,,-33.7990378, 150.9266116
Lambruk Joiners &amp; Cabinetmakers,(02) 6684 1066,,sales@lambruk.com.au,,,,,
Madison Turner Pty Ltd,(02) 9666 4800,,,8 Rochester St,NSW,Botany,2019,-33.949846, 151.198553
Master Kitchens &amp; Joinery,(02) 6057 4738,,sales@mkaj.com.au,,,,,
Mister Ply &amp; Wood,1300 138 771,,blacktown@misterplywood.com.au,,,,,
Morrissey Cabinets,(02) 6621 6324,,morrisseycabinets@gmail.com,109 Wilson St,NSW,South Lismore,2480,-28.811076, 153.260213
Marfe Joinery,(02) 6297 1215,,marfejoinery@gmail.com,28 Hincksman St,NSW,Queanbeyan East,2620,-35.34051, 149.24017
Mark's Cabinet Making,(02) 9666 7333,,info@markscabinetmaking.com.au,124 Wentworth Ave,NSW,Pagewood,2035,-33.942512, 151.217113
Marnix Spaans Quality European Joinery,0428 035 325,,info@marnixspaans.com.au,2/ 17A Lyell St,NSW,Mittagong,2575,-34.448948, 150.431607
MASHALANI PTY LTD,0450 964 260,,info@mashalani.com.au,,,,,-33.9808193, 150.9959633
McGaw's Joinery,0407 462 772,,mcgawsbc@bigpond.com,,,,,-34.7545432, 149.7178169
MCG Kitchens,(07) 5523 2968,,deb@mcgdesigns.com.au,12 Rivendell Ct,NSW,Tweed Heads South,2486,-28.20572, 153.542885
MCM kitchens and Joinery,0414 745 106,,,Unit 2 13 Geary Pl,NSW,North Nowra,2541,-34.858663, 150.571674
Michael Sarno,(02) 6581 5120,,,11 Karungi Crst,NSW,Port Macquarie,2444,-31.44663, 152.88961
MK Fine Woodworking,0466 825 759,,,3 Connelly St,NSW,Penshurst,2222,-33.965159, 151.089423
Mode Kitchens,(02) 6962 7080,,,158 Wakaden St,NSW,Griffith,2680,-34.288017, 146.060074
Modern Design Kitchens,(02) 9885 2905,,info@moderndesignkitchens.com.au,Unit 2 67B Christina Rd,NSW,Villawood,2163,-33.881443, 150.986305
Modern Design Wardrobes,(02) 9892 1366,,,Unit 5 575 Woodville Rd,NSW,Guildford,2161,-33.862995, 150.992708
MPW,(02) 9550 5356,,alexandria@misterlywood.com.au,26 Burrows Rd,NSW,St Peters,2044,-33.917472, 151.182792
Mr Cabinets,1300 672 224,,,172 Settlement Rd,VIC,Thomastown,3074,-37.694153, 145.039981
Middleton Design Pty Ltd,(02) 9905 0608,,,Unit 2f/ 130 Old Pittwater Rd,NSW,Brookvale,2100,-33.76732, 151.26028
Mona Vale Kitchens,(02) 9997 8042,,,Unit 7 14 Polo Ave,NSW,Mona Vale,2103,-33.674267, 151.308601
My Kitchen Cabinets,(02) 9608 6678,,info@mykitchencabinets.com.au,Unit 20/ 314 Hoxton Park Rd,NSW,Prestons,2170,-33.928871, 150.885956
N.S.W. Joinery Pty Ltd,(02) 9664 2235,,sales@nswjoinery.com.au,8 Yamma St,NSW,Sefton,2162,-33.882284, 151.01313
Olivardo &amp; Co PTY LTD,0403 845 022,,cupoftea@hotmail.com.au,273 Canterbury Rd,NSW,Canterbury,2193,-33.913795, 151.11444
Oliver Interiors,0416 648 939,,,2/ 222 Headland Rd,NSW,North Curl Curl,2099,-33.759302, 151.282437
Proline Joinery,(02) 9559 3336,,,17 Carrington Rd,NSW,Marrickville,2204,-33.91675, 151.15742
Quality In Wood,0417 066 108,,,,,,,
RCW Cabinets,0411 960 333,,rcwcabinets@bigpond.com,67 Riveroak Dr,NSW,Murwillumbah,2484,-28.341845, 153.363653
Reliable Shopfitting,(02) 9769 1350,,,Unit 1/ 79 Mandoon Rd,NSW,Girraween,2145,-33.802142, 150.939162
Robertson's Custom Cabinets,(11) 1111 1111,,doug@robertsonscabs.com,Unit 4/ 10-14 Yalgar Rd,NSW,Kirrawee,2232,-34.026883, 151.075673
Rybrook Joinery,(02) 4422 4600,,sbrookes_09@yahoo.com,,,,,
Red Dodge Joiner,0413 921 437,,raschippers@optusnet.com.au,,,,,-33.91063, 151.15646
Reliable Shop Fitting,(02) 9757 3574,,,5/ 323 Woodpark Rd,NSW,Smithfield,2164,-33.83543, 150.93508
Roy Sacchetti,0413 545 824,,,10 Spencer St,NSW,Five Dock,2046,-33.869628, 151.118283
Rybrook Joinery &amp; Cabinet Makers,(02) 4422 4600,,sbrookes_09@yahoo.com,Units 2- 3/ 1 Gesham Way,NSW,Bomaderry,2541,-34.845265, 150.611401
Sadubin Leon-Designer Furniture Maker,0423 475 129,,leon@leonsadubin.com.au,7 / 11 Bergin St,NSW,Gerringong,2534,-34.74326, 150.819733
S &amp; D Joinery,(02) 6962 6750,,,,,,,
Standard Cabinet Australia,0430 709 988,,standardcabinetaustralia@gmail.com,,,,,
Summit Joinery Works,(02) 6625 1454,,roy@summitjoineryworks.com.au,37 Lancaster Dr,NSW,Goonellabah,2480,-28.81834, 153.34785
Scammell Furniture Pty Ltd,(02) 9477 2157,,grant@scammellfurniture.com.au,Unit 3/ 1 Leighton Pl,NSW,Hornsby,2077,-33.6971, 151.1116
S &amp; C Kitchen &amp; Joinery,(02) 9892 1763,,sckitchens@hotmail.com,,,,,
S.G.M Pty Ltd,0415 652 764,,,Unit 2 8 Manor Rd,NSW,Hornsby,2077,-33.69271, 151.09154
Shoreline Kitchens Pty Ltd,(02) 9905 9527,,,4/ 11 Ada Ave,NSW,Brookvale,2100,-33.76692, 151.27718
Skalkos Woodwork Design,(02) 9533 6420,,,Unit 11 10- 12 Hearne St,NSW,Mortdale,2223,-33.96521, 151.06728
Steinhardt's Kitchens &amp; Joinery,(02) 6772 8212,,steinhardtskitchens@exemail.com.au,Cnr Bundarra Rd and Brickfield Ave,NSW,Armidale,2350,-30.51725, 151.64317
Stonehaven Furniture,(02) 6385 3196,,,Pudman St,NSW,Boorowa,2586,-34.437256, 148.722883
Stoney Creek Kitchens,0408 974 517,,stoneycreekkitchens@gmail.com,,,,,-35.2685446, 147.1147194
Superior Cabinets,0412 179 552,,,,,,,
Sydney Cabinet Making &amp; Joinery,(02) 9666 4777,,,14 Tenterden Rd,NSW,Botany,2019,-33.950956, 151.200398
Scott Burrows Cabinet Making,0405 546 488,,sbcabinets1@optusnet.com.au,,,,,-33.6879969, 151.1084784
Soho Design Group Pty Ltd,(02) 9476 4844,,,Unit 13 8 Leighton Pl,NSW,Hornsby,2077,-33.69663, 151.1132
Sulway Joinery,(02) 6299 1416,,sulwayjoinery@netspeed.com.au,15 Shropshire St,ACT,Queanbeyan,2620,-35.339722, 149.240085
Symmetry Shopfitting &amp; Kitchens (Ben Harding),0408 153 100,,ben@symmetryshopfitting.com.au,Unit 19 39-41 Corporation Cct,NSW,Tweed Heads South,2486,-28.207683, 153.537713
Traditional Fine Furniture Pty Ltd,(02) 8765 8949,,,44 Edwin St,NSW,Mortlake,2137,-33.842262, 151.105091
VFP Kitchens,(02) 6652 6948,,,192A Orlando St,NSW,Coffs Harbour,2450,-30.284631, 153.128064
Volpes Cabinets - Northern Beaches,(02) 9981 1636,,info@volpescabinets.com.au,5/ 161 South Creek Rd,NSW,Cromer,2099,-33.737616, 151.282302
WEBB KITCHENS,0407 561 614,,,,,,,-36.0509521, 146.9328139
Willis Joinery Pty Ltd,(02) 6642 4735,,,38 Swallow Rd,NSW,Grafton,2460,-29.7255, 152.94551
Wood Appeal Pty Ltd,(02) 9905 9228,,,Units 1 2/ 2-4 William St,NSW,Brookvale,2100,-33.76791, 151.26899
Wright W R &amp; R M,(02) 6684 6466,,,Lot 1 Treehaven Gulgan Rd,NSW,Brunswick Heads,2483,-28.56472334, 153.535218578
Willis Cabinets,0407 879 088,,,103B Davidson St,NSW,Deniliquin,2710,-35.52572, 144.976157
Window Makers,(02) 6672 7239,,,28 32 Buchanan St,NSW,South Murwillumbah,2484,-28.330355, 153.40988
Wrights Prestige Cabinets,(02) 4353 8174,,wrightsprestigecabinets@ozemail.com.au,,,,,-33.2836296, 151.4230137
Xpandesign,0421 902 287,,xpandesign88@gmail.com,,,,,-28.1868997, 153.5228386
YKH Enterprises,0425 204 851,,ykhenterprises@yahoo.com.au,Unit 4/ 16 Dale St,NSW,Brookvale,2100,-33.764365, 151.26817
Zalbergs P &amp; R,(02) 4353 1440,,,2 Marklea Cl,NSW,Tuggerah,2259,-33.296592, 151.418935
Alpha Joinery,(08) 8947 7068,,george@alphajoinery.com.au,66 Benison Rd, NT,Winnelli,0820,-12.431061, 130.869903
Custom Cabinets Katherine Pty Ltd,(08) 8971 1777,,,Lot 1505/ Crawford St, NT,Katherine Eas,0850,-14.474895, 132.286899
Darwin Joinery Pty Ltd,(08) 8947 1017,,john.pastrikos@darwinjoinery.com.au,106 Coonawarra Rd, NT,Winnelli,0820,-12.431395, 130.884114
Darwin Kitchens &amp; Cabinets,(08) 8947 2525,,admin@darwinkitchens.com.au,43 Berrimah Rd, NT,Berrima,0828,-12.445, 130.92397
Fast Carpentry Services,(08) 8952 4835,,facarp@ozemail.com.au,5 Brown St, NT,Ciccon,0870,-23.689831, 133.869982
Fast Carpentry Services Pty Ltd,(08) 8952 4835,,facarp@ozemail.com.au,Shed 4/ 5 Brown St, NT,Ciccon,0870,-23.68983, 133.86998
J &amp; K Kyriacou Industrial Joinery Pty Ltd,(08) 8981 3746,,jk-kyriacou@hotmail.com,14 Bishop St, NT,Woolne,0820,-12.433854, 130.851865
Kitchens Wardrobes Vanities,(08) 8983 2223,,info@kwvnt.com.au,Shed 52 5 Tulagi Rd, NT,Yarrawong,0830,-12.4689, 130.98927
Kitchens Wardrobes Vanities NT,(08) 8983 2223,,info@topendcabinets.com.au,,,,,-12.4764425, 130.9906284
McKinnon Cabinetmakers,(08) 8932 2612,,manny@mckinnoncabinets.com.au,87 McKinnon Rd, NT,Berrima,0828,-12.45961, 130.96395
Prestige Cabinets,(08) 8952 8399,,prestigecabinetsas@bigpond.com,11 Coulthard Ct, NT,Ciccon,0870,-23.694773, 133.866813
Prestige Cabinets Pty Ltd,(08) 8952 0399,,,11 Coulthard Crt,, NT,Alice Spring,0870,-23.69477, 133.86681
W. R. Cabinet Making &amp; Joinery,(08) 8984 4892,,,,,,,
Accolade Joinery,0416 205 946,,,,,,,-34.92717091, 138.59954085
Ahrns Carpentry &amp; Cabinets,0418 157 041,,,5 Noel St, SA,Murray Bridg,5253,-35.123239999999996, 139.25835
All Building Supplies,0401 052 340,,absallbuilding@gmail.com,Unit 2 9 Cardiff Ct, SA,Cava,5094,-34.825247, 138.595746
Austwood Manufacturing Pty Ltd,(08) 8281 0554,,graham@austwoodmfr.com.au,5 Turin Pl, SA,Salisbury Sout,5106,-34.782477, 138.633509
A Class Kitchens,(08) 8280 6390,,,2 Hawker Rd, SA,Burto,5110,-34.734052, 138.598639
Ak Kitchens,(08) 8531 2300,,,,,,,-35.1197018, 139.2747261
Allstyle Cabinets &amp; Shopfittings,(08) 8374 3695,,,5 Lloyd St, SA,St Mary,5042,-35.003933, 138.576753
AWA Kitchens,(08) 8261 3624,,sales@awakitchens.com.au,,,,,-34.8652791, 138.6453407
Adelaide Kitchens Direct,0412 040 676,,ken@akdirect.com.au,,,,,-34.5921189, 138.5140604
Allan Carter Cabinetmaking,(08) 8376 1253,,cabinets@allancarter.com.au,6 Byre Ave, SA,Somerton Par,5044,-34.997822, 138.522656
Arnoldy Cabinets,(08) 8855 3275,,,19 Cockle Cove Dr, SA,The Pine,5575,-34.914053, 137.168264
Axis Cabinet Makers,(08) 8244 5299,,,Unit 3/ 2-8 Gray St, SA,Kilkenn,5009,-34.87443, 138.55214
Baldetti Kitchens,(08) 8359 5222,,,27 York St, SA,Wingfiel,5013,-34.837556, 138.56615
Brian Nelson Cabinets,0418 818 604,,bne53444@bigpond.net.au,2 Mobius Crst, SA,Golden Grov,5125,-34.787538, 138.710806
Brian Nelson's Cabinets,0418 818 604,,,,,,,-34.7928156, 138.6936482
B &amp; S Joinery Pty Ltd,(08) 8349 7376,,,271 Cormack Rd, SA,Wingfiel,5013,-34.840599, 138.577981
Cabinet Creations,1300 565 316,,,76 Wingfield Rd, SA,Wingfiel,5013,-34.842653, 138.551048
COASTAL CABINETRY AND DESIGN,0457 557 979,,,10C Denton Dr, SA,Rob,5276,-37.173537, 139.757033
Craig Zerk Furnishings,0408 836 491,,,18 Adelaide Rd, SA,Lamero,5302,-35.324299, 140.513498
Custom Kit Kitchens,(08) 8723 3255,,tom@ckk.net.au,4 Graham Rd, SA,Mount Gambie,5290,-37.817874, 140.751115
Cabinets by Michael,(08) 8725 7602,,,34 Margaret St, SA,Mt Gambie,5290,-37.831227, 140.774671
Catalano Kitchens &amp; Cabinets,0412 600 819,,ernest@catalanokitchens.com.au,,,,,
C &amp; D Cabinets,0414 435 175,,,,,,,-35.0824407, 138.5622724
Coast to Coast Cabinets PTY LTD,0420 373 795,,,Unit 6 15 Shearer Dr, SA,Seafor,5169,-35.183112, 138.488741
Complete Joinery Pty Ltd,(08) 8131 8502,,suecompletejoinery@gmail.com,,,,,
Croudace Constructs Pty Ltd,0420 373 287,,mick@croudaceconstructs.com.au,26 Farrow Cct, SA,Seafor,5169,-35.185293, 138.484975
Custom Built Cabinet Makers,(08) 8349 9911,,,Unit 2 302 Cormack Rd, SA,Wingfiel,5013,-34.83971, 138.57032
Custom Cabinetmakers,0427 476 310,,customcabinets@people.net.au,73 Esmond Rd, SA,Port Pirie Sout,5540,-33.1941, 138.00895
Custom Made Furniture,,,,,,,,-35.1503681, 138.5035437
Class Cabinets &amp; Maintenance Pty Ltd,0417 881 124,,Trevor@classcabinets.com,,,,,-35.1034659, 138.5574374
Complete Kitchens,(08) 8272 6084,,admin@completekitchens.com.au,6 Allan St, SA,Melrose Par,5039,-34.991839, 138.575786
Custom Creative Cabinets,0430 316 969,,,,,,,-34.7613322, 138.670194
Cutajar Robert,(08) 8447 8998,,,Unit 18 2 Brandwood St, SA,Royal Par,5014,-34.86643, 138.50374
Design Cabinetry,0416 066 110,,designcabinetry8@gmail.com,,,,,-35.1062488, 138.5069118
Diverse Storage Solutions,0414 736 064,,,,,,,-35.4575241, 138.3499615
Duncan Villet,0448 861 784,,info@duncanvillet.com,,,,,-34.8945269, 138.5567274
Empire Cabinetmaker,(08) 9303 2261,,,Unit 2/ 77 Motivation Dr, SA,Wangar,5607,-34.5501319, 135.4785226
Granite Kitchen Makeovers,(08) 8363 6622,,info@kitchens-sa.com,74 Payneham Rd, SA,Stepne,5069,-34.911609, 138.626415
Hy-Craft Furniture &amp; Kitchens,0411 597 562,,hycraft@tpg.com.au,1 Donegal Rd, SA,Lonsdal,5160,-35.118141, 138.494269
Independent Cabinets,0412 807 106,,jciccarello@hotmail.com,,,,,-34.8562274, 138.655745
Instyle Kitchens,0414 719 379,,,13 Fourth Ave, SA,Seato,5023,-34.884736, 138.516985
Intime Kitchens &amp; Interiors Pty Ltd,(08) 8555 0943,,,5 Gundagai St, SA,Goolw,5214,-35.503528, 138.773996
Jachmann G P &amp; A T,(08) 8584 6997,,,Badcoe Rd, SA,Loxto,5333,-34.463498, 140.599433
J.F. Hindes,0414 410 900,,,12 Aberdeen St, SA,Port Adelaid,5015,-34.84611, 138.51208
Johnson Home Improvements,1300 325 411,,sales@jhi.com.au,,,,,
Jono's Cabinets,(08) 8682 6099,,jonoscabinets@esc.net.au,116 New West Rd, SA,Port Lincol,5606,-34.728649, 135.840614
James Rochow Cabinets,0421 825 593,,jrochow@live.com.au,,,,,-34.99806185, 138.57071038
JM Carpentry and Joinery,0404 956 772,,,,,,,-34.9381589, 138.6608164
Jazz Cabinetry Pty Ltd,0412 408 473,,sean@jazzcabinetry.com,Unit 4 30 Jacobsen Cres, SA,Holden Hil,5088,-34.846457, 138.676386
Joe's Quality Country Kitchens,0427 673 092,,,11 Smiths Lane, SA,Kingston S,5275,-36.839911, 139.854193
JS Kitchens and Cabinets,0417 866 126,,jskitchensandcabinets@live.com.au,,,,,-35.0676399, 138.8583142
Kustom Joinery Manufacturers Pty Ltd,0406 577 159,,kjm@kustomjoinery.com,67 Lipson St, SA,Port Adelaid,5015,-34.847017, 138.508305
Ludi-Schutz Thomas,0428 195 445,,enquiries@ludi-schutz.com.au,,,,,-34.523453, 138.9614938
Mack's Cabinets,(08) 8862 1187,,kym@mackscabinets.com.au,,,,,-34.1461701, 138.4151853
McCully Cabinets &amp; Joinery,(08) 8762 2482,,,38 Smith St, SA,Naracoort,5271,-36.957535, 140.738305
Miller Joinery,(08) 8347 4177,,millerjoinery3@optusnet.com.au,27 Circuit Dr, SA,Hendo,5014,-34.879008, 138.518598
MSM Cabinets &amp; Kitchens,0413 732 587,,,,,,,
Maxform Outdoor Kitchens &amp; Cabinets,0433 846 143,,maxformcab@gmail.com,,,,,-34.843768, 138.7016393
MIG Design,(08) 8346 0811,,,106 Frederick St, SA,Wellan,5007,-34.906071, 138.557445
M &amp; M Cabinet Makers,0421 647 791,,,113 Welland Ave, SA,Wellan,5007,-34.90949, 138.55999
Murray Valley Cabinet Making,0421 148 805,,mvcabinetmaking@gmail.com,117 Maurice Rd Murray Bdge, SA,Murray Bridge Eas,5253,-35.1125393, 139.2945857
New Cabinet Concepts,(08) 8186 1700,,admin@newcabinetconcepts.com.au,Unit 5 7/ 28 Heath St, SA,Lonsdal,5160,-35.11367, 138.5039
Precision Joinery,0439 893 538,,precisionjoinery@outlook.com,265 Blocks Rd, SA,Riverto,5412,-34.137808, 138.760306
Quality Cabinetry and Carpentry Pty Ltd,0431 856 387,,,,,,,-34.5921189, 138.5140604
Rocca &amp; Sons Cabinet Making Pty Ltd,(08) 8395 1277,,adelaideprestigekitchens@gmail.com,Unit 1 30-32 Kesters Rd, SA,Para Hil,5096,-34.8019898, 138.640147
SA Kitchens &amp; Joinery,0421 433 684,,ben_richardson@live.com.au,4 23 Hales Dr, SA,Lonsdal,5160,-35.12104, 138.486462
Senator Kitchens,0430 553 302,,senatorkitchens@hotmail.com,,,,,-35.076482, 138.5919324
Solitaire Kitchens,0402 310 629,,,,,,,-34.8704413, 138.7017913
Steven Horn Constructions,(08) 8853 7210,,,Main Rd, SA,Port Vincen,5581,-34.790018, 137.838993
Salter Quality Kitchens,0427 405 023,,,,,,,-34.3521658, 139.6123276
Sampina Joinery Pty Ltd,(08) 8337 8016,,,24 Papagni Ave, SA,Newto,5074,-34.879353, 138.683434
Sims Cabinets,(08) 8371 0995,,,29 Grove Ave, SA,Marlesto,5033,-34.945464, 138.562849
S J Zoanetti Cabinet Makers,0417 829 092,,,24 Wodonga St, SA,Beverle,5009,-34.892619, 138.542102
South Coast Shopfitters Pty Ltd,(08) 8326 4333,,april@southcoastshopfitters.com.au,30 Gurners Lane, SA,Lonsdal,5160,-35.108833, 138.500914
South East Cabinetry,0400 553 138,,asizzo89@outlook.com,22 White Ave, SA,Mt Gambie,5290,-37.82456, 140.758572
Steven's Prestige Cabinets,(08) 8254 2999,,info@stevensprestigecabinets.com,,,,,-34.6891115, 138.6888534
Sandford Cabinet Makers,0419 867 861,,,23 Dinwoodie Ave, SA,Clarence Garden,5039,-34.970156, 138.57524
SM Cabinets,(08) 8369 0714,,,Unit 3/ 43 Jacobsen Crst, SA,Holden Hil,5088,-34.84716, 138.6739
Spencer Gulf Cabinets,(08) 8641 3298,,rob@spencergulfcabinets.com.au,111 Stirling Rd, SA,Port August,5700,-32.502059, 137.777139
St Peters Cabinet Makers,(08) 8281 8337,,,3 Turin Pl, SA,Salisbury Sout,5106,-34.78262, 138.63381
Town &amp; Country Cabinets Pty Ltd,(08) 8391 0855,,,15 Crompton Rd, SA,Totnes,5250,-35.054665, 138.845527
Unique Shopfitters,(08) 8186 4100,,,Unit 4/ 12 Devon St, SA,Lonsdal,5160,-35.11561, 138.50061
Urban Accent,0417 737 664,,,106 Reuben Richardson Rd, SA,Greenwit,5125,-34.762186, 138.717139
Urban Accent – Kitchens &amp; Cabinets,0417 737 664,,nat@urbanaccent.com.au,8 March St, SA,Greenwit,5125,-34.76692, 138.71868
Vento Cabinets,0433 846 143,,ventoprojects@mail.com,,,,,-34.843768, 138.7016393
Wilder Way,0417 824 052,,,14 Fifth St, SA,Wingfiel,5013,-34.84704, 138.548088
Willsden Joinery, Hardware, Glass &amp; Glazing,(08) 8641 1676,,shelley.reed@willsdenjoinery.com.au,98 Railway Parade, SA,Port August,5700,-32.4922874, 137.7630806
Woodform Pty Ltd,(08) 8384 6440,,info@woodform.com.au,4 Aldenhaven Rd, SA,Lonsdal,5160,-35.111573, 138.495987
Yeomans Greg,(08) 8258 8225,,,29 Bremen Dr, SA,Salisbury Sout,5106,-34.781829, 138.634859
YP Cabinets,0488 312 467,,office@yardbuilders.com.au,1 Clift Rd, SA,Ardrossa,5571,-34.43311, 137.908734
Ziersch Cabinet Makers,(08) 8821 4413,,,8 Price St, SA,Matta Fla,5554,-33.970827, 137.707553
B &amp; B Joinery,(03) 6273 1939,,bbjoinery@netspace.net.au,16-18 Pearl St,TAS,Derwent Park,7009,-42.837553, 147.298932
BG Kitchens &amp; Cabinets,0400 939 196,,,,,,,-42.863198, 147.3831536
Plain Shavings,0439 355 110,,,124 Tinderbox Rd,TAS,Blackmans Bay,7052,-43.018062, 147.32159
Abide Design,(03) 9583 3396,,graeme@abidedesign.com.au,Fcty 1/ 88 Voltri St,VIC,Mentone,3194,-37.97627, 145.08351
A Cupboard Above,0417 357 692,,acupboardabove@hotmail.com,188 Gipps St,VIC,Abbotsford,3067,-37.80511, 144.99557
A Fair Price Kitchen,(03) 9793 9895,,,1/ 55 Scott St,VIC,Dandenong,3175,-37.986191, 145.207267
A-Line Joinery,(03) 9330 2144,,,40 Halsey Rd,VIC,Airport West,3042,-37.71902, 144.88814
Able Cabinets,(03) 9793 6400,,arthur@ablecabinets.com.au,9 Elliott Rd,VIC,Dandenong South,3175,-38.02327, 145.211811
Above P.A.R Commercial Joinery,0401 450 547,,,6 Kauri Ct,VIC,Hampton Park,3976,-38.02833, 145.27376
Absolute Kitchens,(03) 5339 9200,,,302 Dowling St,VIC,Wendouree,3355,-37.533885, 143.841809
ABSymmetrix,(03) 9534 6262,,,17 Rings Rd,VIC,Moorabbin,3189,-37.94646, 145.05927
Ace Kitchen &amp; Cabinetry,0413 149 451,,sales@acekc.com.au,21 Gillespie's Lane,VIC,Ballan,3342,-37.61334, 144.23862
ACG KITCHENS &amp; CABINETS,0402 137 148,,info@acgkitchens.com.au,,,,,-37.7674453, 147.8438266
A &amp; C Handley Custombuilt Furniture Pty Ltd,(03) 9762 2879,,,Unit 3/ 6 Melrich Rd,VIC,Bayswater,3153,-37.84597, 145.28412
A D Cabinets,(03) 5962 3622,,,72 Badger Creek Rd,VIC,Healesville,3777,-37.663303, 145.527458
A Direct Kitchen Company,(03) 9326 1955,,,44 Maribyrnong Rd,VIC,Moonee Ponds,3039,-37.77228, 144.9238
ADT Cabinets,(03) 9702 3336,,adt10@bigpond.com.au,10 / 17-23 Keppel Dr,VIC,Hallam,3803,-38.017141, 145.273921
Advanced joinery,0437 769 128,,advanced.joinery@outlook.com,,,,,-38.2247027, 145.3089282
A &amp; E Franze Cabinet Makers,(03) 9360 9121,,,407- 409 Old Geelong Rd,VIC,Hopkins View,3280,-37.86921325, 144.72862675
AF Cabinets &amp; Carpentry,0428 553 750,,afcabinets@outlook.com,15 Chandlers Rd,VIC,Lake Bunga,3909,-37.859551, 148.037367
Affordable Kitchens Design &amp; Installation,(03) 5626 1539,,keithdewit1@bigpond.com,,,,,-38.1611548, 145.9318239
A Franze Cabinets Pty Ltd,(03) 9748 0888,,,115 Elm Park Dr,VIC,Hoppers Crossing,3029,-37.872698, 144.720808
Age cabinets,(03) 9768 3178,,,,,,,-38.0190089, 145.2186499
A G Kitchens,0409 518 443,,,lot 2 Park Rd,VIC,Chewton,3451,-37.088767, 144.28691
A Grade Cabinets Pty Ltd,0411 528 970,,,3 Inala Ct,VIC,Mulgrave,3170,-37.929199, 145.175611
AHP BUILDING PTY LTD,0479 084 077,,auscabinet@gmail.com,,,,,-37.9191499, 145.2355464
AJ's Cabinets Pty Ltd,0433 215 931,,info@ajscabinets.net,,,,,-37.910314, 145.1885049
AL Joinery Pty Ltd,0477 440 046,,aaronlynchjoinery@gmail.com,1 Wade Ct,VIC,Sale,3850,-38.103285, 147.094685
Allcraft Joinery &amp; Design,(03) 9590 9571,,nathan@allcraftjoinery.com.au,15/ 95 White St,VIC,Mordialloc,3195,-37.99889, 145.09479
All Facets Carpentry &amp; Joinery,0419 535 315,,,,,,,-38.2685161, 145.0137448
Alltec Joinery,0428 545 036,,Alltecjoinery@bigpond.com,,,,,-37.98074, 145.315674
ALM Cabinets,(03) 9543 7343,,info@almcabinets.com,27 Clifford St,VIC,Huntingdale,3166,-37.909588, 145.107385
Alpine Custom Joinery,(03) 5751 1613,,,Cnr Howels Lane and Great Alpine Road,VIC,Myrtleford,3737,-36.5616697, 146.7260067
Alpine Forest Kitchens,(03) 5862 1844,,,20 Railway Pl,VIC,Numurkah,3636,-36.09404, 145.43545
A.L.S. Cabinets Pty Ltd,(03) 9752 4227,,,16 Thomas St,VIC,Ferntree Gully,3156,-37.886409, 145.281561
Action Cabinets,(03) 9543 7683,,,396 Clayton Rd,VIC,Clayton,3168,-37.928258, 145.119102
Alban Cabinets,(03) 9311 0700,,,11 Henderson St,VIC,Sunshine North,3020,-37.764383, 144.842272
Andave Cabinets,(03) 9580 4040,,andrew@andave.com.au,41 Jarrah Dr,VIC,Braeside,3195,-38.00366, 145.10887
Andrew Gallagher Cabinet Maker,(03) 5623 6637,,reception@agcabinets.com.au,14 Cadby Ct,VIC,Warragul,3820,-38.163509, 145.941377
Artemis Kitchen Designs,0423 494 545,,,,,,,
Australian Made Wardrobes &amp; Kitchens,(03) 5976 3112,,amwk1@bigpond.com,13 Bruce St,VIC,Mornington,3931,-38.234864, 145.058521
AW Ferres Cabinet Making,0422 099 988,,awferrescabinets@gmail.com,101 Lauriston Reservoir Rd,VIC,Kyneton,3444,-37.257228, 144.440659
Anning Cabinet Makers,(03) 9706 6668,,,Fcty 1/ 483 Hammond Rd,VIC,Dandenong South,3175,-38.03082, 145.20271
Antic Cabinet Makers Pty Ltd,(03) 9798 8945,,sash@antic.com.au,3 Futura Rd,VIC,Keysborough,3173,-37.98646, 145.192
Antoniou Cabinets,(03) 9729 9167,,,Unit 15/ 52 Corporate Blv,VIC,Bayswater,3153,-37.839768, 145.281884
AOJIE Kitchens &amp; Cabinets,(03) 9381 4072,,aojiekitchen@gmail.com,39 Syme St,VIC,Brunswick,3056,-37.76814, 144.95442
Art Tops,(03) 9553 6022,,,1 Walter St,VIC,Moorabbin,3189,-37.93957, 145.06489
A S &amp; N Joinery,(03) 9764 9977,,,4 Samantha Ct,VIC,Knoxfield,3180,-37.90043, 145.25147
A Uden Installations,0407 180 410,,a.udeninstallations@outlook.com,,,,,-37.782736, 145.6103123
Austral Kitchens &amp; Cabinets,(03) 9465 6045,,enquiries@australkitchens.com.au,Fcty 3/ 99 Heyington Ave,VIC,Thomastown,3074,-37.68384, 145.02575
A Village Workshop,0419 439 978,,,,,,,-37.7133532, 145.1489311
A.V.J. Kitchens &amp; Joinery,0414 395 132,,avjkit@bigpond.com,Unit 1 30 Triholm Ave,VIC,Laverton,3028,-37.867566, 144.75836
Award Cabinets,(03) 9532 1900,,info@awardcabinets.com.au,Factory 14/18- 20 Powlett St,VIC,Moorabbin,3189,-37.94588, 145.0754
A Yarra Valley Cabinet Makers Pty Ltd,(03) 9728 8088,,,85 Canterbury Rd,VIC,Kilsyth,3137,-37.81608, 145.32223
Australian Built Cabinets,0403 322 625,,,,,,,-37.7809801, 145.5659447
Azin Decor,0420 549 981,,adam.azindecor@gmail.com,Unit 7 9-11 Clare St,VIC,Bayswater,3153,-37.843466, 145.282436
Babylon Kitchen Cabinets Pty Ltd,(03) 9335 1598,,,13 Barrie Rd,VIC,Tullamarine,3043,-37.711852, 144.876808
Bellissimo Cabinets,(03) 9764 8555,,bellissimocabinets@hotmail.com,Factory 1/ 9 Laser Dr,VIC,Rowville,3178,-37.909971, 145.244054
Bluz Kitchens Dandenong,,,,,,,,
BROOME BEACH PTY. LTD,0412 126 560,,Pundi@broomebeach.com.au,11B Capital Link Dr,VIC,Campbellfield,3061,-37.65694, 144.96332
Barev Cabinets,0402 738 538,,,8 Lansell Dr,VIC,Cranbourne North,3977,-38.083261, 145.289959
Barwon Cabinets,0407 410 022,,hager.5@hotmail.com,Unit 1/ 14 Dendle St,VIC,Grovedale,3216,-38.194628, 144.346075
Bathroom Renovations,0409 437 091,,,28 Mitchell St,VIC,Belmont,3216,-38.175667, 144.351182
Bayside cabinet,0418 302 358,,simon@sasfurniture.com.au,Unit 5 84 Bayfield Rd East,VIC,Bayswater North,3153,-37.825359, 145.279027
B &amp; D Ellison Cabinet Makers,(03) 5725 1683,,,,,,,-36.3079546, 146.5194544
Beaufort: Joinery Pty Ltd,(03) 5349 2187,,,11 Willoby St,VIC,Beaufort,3373,-37.429167, 143.384713
Bel Cabinets,(03) 5981 1788,,,Factory 1/ 4 Newington Ave,VIC,Capel Sound,3940,-38.38032, 144.88524
Belmont Cabinets,(03) 9899 1414,,,Factory 2/ 51 Lexton Rd,VIC,Box Hill North,3129,-37.81165, 145.13724
Benchmark Joinery,(03) 9545 5500,,,unit 1 69 Whiteside Rd,VIC,Clayton South,3169,-37.938077, 145.12348
Benchtop Solutions Pty Ltd,0413 432 650,,info@benchtopsolutions.com.au,,,,,-37.639938, 144.881622
Benway Cabinets Pty Ltd,(03) 5672 3820,,benway315@yahoo.com.au,315 White Rd,VIC,Wonthaggi,3995,-38.58751, 145.57851
BESCO Industries Pty Ltd,(03) 9988 6591,,info@besco.com.au,Macaulay St 27,VIC,Williamstown North,3016,-37.84985, 144.863406
B &amp; F Cabinet Makers,(03) 9534 4599,,,34 Greeves St,VIC,St Kilda,3182,-37.865821, 144.983459
Bianca Cabinet &amp; Design,0450 089 137,,,22A Dandenong St,VIC,Dandenong,3175,-37.99274, 145.199613
Bluz Kitchens Pty Ltd,(03) 9794 9981,,,Fcty 18/ 50 Princes Hwy,VIC,Eumemmerring,3177,-38.000671, 145.239519
BM Joinery,0406 850 707,,terrybai03@gmail.com,6-10 Sullivan St,VIC,Moorabbin,3189,-37.93896, 145.06451
Border Cabinets,(03) 5744 1183,,,Benalla Rd,VIC,Yarrawonga,3730,-36.02665, 145.995791
Bourke's Kitchens,(03) 5441 7786,,reception@bourkeskitchens.com.au,176 Murphy St,VIC,Bendigo,3550,-36.745366, 144.305323
Bradbec Cabinets Pty Ltd,(03) 5428 8133,,,Factory 5/ 12 Ladd Rd,VIC,New Gisborne,3438,-37.467138, 144.604499
Bright Cabinets Pty Ltd,(03) 9357 7962,,,30 Sarah St,VIC,Campbellfield,3061,-37.670755, 144.971057
Brightwell Cabinets,(03) 9791 1060,,,2A Kirkham Rd,VIC,Dandenong South,3175,-37.999911, 145.220831
Brown Bros Cabinet-Works Pty Ltd,(03) 9852 0902,,,2A Apex Crst,VIC,Bulleen,3105,-37.77045, 145.09463
Bucci's Cabinets,(03) 9769 1299,,,2 Futura Rd,VIC,Keysborough,3173,-37.98691, 145.19203
Built Top Cabinets,(03) 9568 4801,,,52 Regent St,VIC,Oakleigh,3166,-37.903134, 145.094537
Burmak Cabinets Pty Ltd,(03) 5979 8993,,admin@burmakcabinets.com.au,2/ 1 Sovereign Dr,VIC,Hastings,3915,-38.29089, 145.18504
Bellarine Cabinets,(03) 5248 7756,,bellarinecabinets@bigpond.com,5 Roxanne Pl,VIC,Newcomb,3219,-38.173545, 144.397757
B &amp; K Cabinets,(03) 5961 5642,,,,,,,
Brockies Cabinets,(03) 5721 5475,,,157 Vincent Rd,VIC,Wangaratta,3677,-36.36412, 146.30476
Buzzed Cabinets,0481 188 821,,,9 Tullaroop Ct,VIC,Lysterfield,3156,-37.910177, 145.27707
Cabco Kitchens Pty Ltd,(03) 9775 0700,,,49 Keppler Cct,VIC,Seaford,3198,-38.097921, 145.152793
Can Do Kitchens,(03) 9735 9004,,,1 Trade Pl,VIC,Lilydale,3140,-37.750268, 145.349247
Cenik's Cabinet,(03) 9551 8142,,teyyami_cenik@hotmail.com,4/ 2 Garden Blv,VIC,Dingley Village,3172,-37.983202, 145.114553
Classic kitchens &amp; cabinets,0499 718 603,,,Unit 2 14 Gasoline Way,VIC,Craigieburn,3064,-37.616689, 144.950412
Cabinet Connections,(03) 5143 1529,,info@cconnections.com.au,4-6 Dawson St,VIC,Sale,3850,-38.092605, 147.057904
Cabinetcraft Kitchens,(03) 9738 7652,,cabinetcraft@netspace.net.au,157-161 Factory 6 Beresford Rd,VIC,Lilydale,3140,-37.750087, 145.337371
Cabinetry Creations,1300 002 224,,Info@cabinetrycreations.com.au,116 Wedgewood Rd,VIC,Hallam,3803,-38.015259, 145.261557
Cabinetry Furniture Kitchens,0404 091 371,,jiri308@gmail.com,Kiewa Valley Hwy,VIC,Tawonga South,3698,-36.718319, 147.145859
Cabinets Plus,0433 467 542,,info@cabinetsplus.com.au,2/ 6 Park Dr,VIC,Dandenong South,3175,-38.031479, 145.220773
Cabinets 'R' Us,(03) 9444 7518,,,14 Curtis Ave,VIC,Watsonia,3087,-37.7149, 145.07625
Cabworx Kitchens,0406 495 762,,jarrod@cabworxkitchens.com.au,19 Dickson St,VIC,Warrnambool,3280,-38.371597, 142.455979
CAD Interiors P/L,0408 148 007,,,4 21 Export Rd,VIC,Craigieburn,3064,-37.601494, 144.947876
Capeview Kitchens,(03) 5672 4890,,,,,,,-38.6059367, 145.588532
Carfi Cabinets &amp; Shopfittings,(03) 9484 5644,,,7 Beecher St,VIC,Preston,3072,-37.75404, 145.02463
Carlton Cabinets,(03) 9459 8153,,chuck@carltoncabinets.com.au,Factory 1/ 16 Korong Rd,VIC,Heidelberg West,3081,-37.733094, 145.047526
Carlyle Cabinet Makers,(02) 6032 8669,,timber.joint@gmail.com,51 Nash's Rd,VIC,Rutherglen,3685,-36.049328, 146.471206
Caroline Springs Wishing Well Hire,,,,3 Trade Park Dr,VIC,Tullamarine,3043,-37.694569, 144.874607
Casey Cabinets,(03) 5997 1423,,,,,,,
Cattanach Kitchens,(03) 5272 2091,,,7 Slevin St,VIC,North Geelong,3215,-38.12185, 144.349663
Cedar Cabinets,(03) 9308 9740,,,15 Thornycroft St,VIC,Campbellfield,3061,-37.645826, 144.942163
Ceratech Designer Kitchens,(03) 9335 3240,,,Factory 4 57 Garden Dr,VIC,Tullamarine,3043,-37.69005, 144.87574
Chaucer Cabinets,(03) 9728 2399,,lance@chaucercabinets.com.au,Factory 2/ 143-145 Canterbury Rd,VIC,Kilsyth,3137,-37.819713, 145.31079
Chenoweth Kitchens,(03) 5562 3414,,,217 Koroit St,VIC,Warrnambool,3280,-38.382293, 142.479582
Chris Lawerence,(03) 5472 3133,,cdlawerence@mmnet.com.au,61 Princess St,VIC,Campbells Creek,3451,-37.086716, 144.191881
Chris Mack Cabinets,0402 158 468,,,7 Wattlebird Ct,VIC,Dingley Village,3172,-37.98753, 145.127942
C K Joinery,(03) 9761 4345,,,Unit 1 12 Eastspur Ct,VIC,Kilsyth South,3137,-37.822601, 145.315022
CKM Cabinets,0412 347 184,,ckmcabinets@gmail.com,,,,,-38.1083474, 145.2844247
Clamor Pty Ltd,(03) 9786 6674,,,90 Brunel Rd,VIC,Seaford,3198,-38.101329, 145.154372
Clayton R. M. Joinery Pty Ltd,(03) 5721 5122,,admin@rmclaytonjoinery.com.au,28- 32 Newman St,VIC,Wangaratta,3677,-36.36619, 146.30938
Clock It Pty Ltd,(03) 9720 6580,,scott@clockit.com.au,Unit 5/ 21 Malvern St,VIC,Bayswater,3153,-37.84229, 145.27345
CNC PRO,0411 174 767,,sam@cncpro.com.au,15-17 Antonella Ct,VIC,Dandenong South,3175,-38.03331, 145.20567
Colonial Woodcraft Products,0409 187 700,,,103 Kennedy St,VIC,Portland,3305,-38.33601, 141.59381
Complete Cabinets,(03) 9397 8400,,admin@comcabsvic.com,Factory 1 8 Albemarle St,VIC,Williamstown,3016,-37.850946, 144.86649
Complete Shopfitters Pty Ltd,(03) 9791 2584,,,41 Kitchen Rd,VIC,Dandenong South,3175,-38.018315, 145.224616
Concept Cabinets Pty Ltd,(03) 9462 2533,,admin@conceptcabinets.com.au,Factory 35/ 7 Dunstans Ct,VIC,Thomastown,3074,-37.693588, 145.019395
Cailes Cabinets,0407 842 241,,jcaile@bigpond.net.au,Factory 2/ 329 White Rd,VIC,Wonthaggi,3995,-38.58654, 145.57724
Cedro Cabinets,(03) 9354 1254,,,25 Trade Pl,VIC,Coburg North,3058,-37.724682, 144.971746
Classic Joinery,0409 538 138,,,21A Randor St,VIC,Campbellfield,3061,-37.66465, 144.96564
Continental Cabinets,0415 918 467,,,Factory 2/ 3 Heversham Dr,VIC,Seaford,3198,-38.111886, 145.140911
Contour Cabinets Vic Pty Ltd,(03) 8761 6770,,,Factory 4/ 155 Canterbury Rd,VIC,Kilsyth,3137,-37.819255, 145.308891
Craft Style Cabinets Pry Ltd,(03) 9798 1422,,stevens9813@gmail.com,Unit 4 9 Monterey Rd,VIC,Dandenong South,3175,-38.023588, 145.219845
CR &amp; R Kitchens,0428 345 556,,,Shed 7 39 Hovell St,VIC,Wodonga,3690,-36.118656, 146.891418
Customcraft Shopfitting Pty Ltd,(03) 9585 2805,,,33- 35 Jack Rd,VIC,Cheltenham,3192,-37.96066, 145.04233
Contrast Cabinets,(03) 9729 3139,,,Fcty 2/ 48 Jersey Rd,VIC,Bayswater,3153,-37.845, 145.27798
Cook &amp; Nation Pty Ltd,(03) 9729 3111,,sales@cookandnation.com.au,32 Malvern St,VIC,Bayswater,3153,-37.843406, 145.274132
Coop's cabinets,0407 832 254,,,295 Hooper Rd,VIC,Tatura,3616,-36.383429, 145.23636
Creative Cabinets,(03) 9798 3006,,,Fcty 1/ 7 Futura Rd,VIC,Keysborough,3173,-37.986186, 145.19146
Creative Design Cabinets,(03) 9555 9393,,,,,,,
CSG Cabinets,0417 549 553,,csgcabinets@gmail.com,70/22 Dunn Crst,VIC,Dandenong,3175,-37.994286, 145.192819
Cubin Management,0438 600 449,,reception@cubin.com.au,5 Misten Ave,VIC,Altona North,3025,-37.830022, 144.839409
Cupboard Boys Pty Ltd The,(03) 9796 5797,,info@thecupboardboys.com.au,8 Astro Ct,VIC,Hallam,3803,-38.015175, 145.256674
Customize Australia Pty. Ltd.,(03) 9543 9012,,,4/ 13-19 Coora Rd,VIC,Oakleigh South,3167,-37.91543, 145.1046
Custom Kitchens &amp; Granite,,,robmihan@msn.com,259 Etiwanda Ave,VIC,Mildura,3500,-34.192267, 142.173247
Custom Living Solutions,0425 771 495,,daniel@customlivingsolutions.com.au,48 Hawker St,VIC,Airport West,3042,-37.721997, 144.887153
Courtesy Cabinets,(03) 9723 7099,,,5/ 40 Lacey St,VIC,Croydon,3136,-37.79592, 145.28656
CRK Cabinets,(03) 5627 8447,,,205 Williamsons Rd,VIC,Nilma,3821,-38.14735, 146.01087
Curv Living,(03) 8288 2292,,info@curvliving.com.au,59 Factory 5 Jersey Rd,VIC,Bayswater,3153,-37.839052, 145.280284
Cut Price Cabinetry,(03) 8370 3545,,,9 Corr St,VIC,Moorabbin,3189,-37.940556, 145.069
D'Arcy Cabinets,0414 825 673,,jdcabinets@iprimus.com.au,Factory 1 21 Simcock St,VIC,Somerville,3912,-38.221971, 145.180958
Deep Blue Cabinets,(03) 9334 2555,,,Unit 8/ 8-10 Catalina Dr,VIC,Tullamarine,3043,-37.6912, 144.87983
Desire Kitchens,0423 946 944,,desire_kitchens@msn.com,Fac 2/18 Corr St,VIC,Moorabbin,3189,-37.94117, 145.06974
Diverse Kitchens,0407 171 074,,,61 Gardenia St,VIC,Pakenham,3810,-38.063649, 145.48913
Darryl J King Cabinet Making &amp; Carpentry Services,(03) 9596 6677,,,2 Cowra St,VIC,Brighton,3186,-37.905218, 145.006505
Davey Cabinets Pty Ltd,(03) 9720 7989,,daveycabinets4@bigpond.com,Factory 7/ 18-20 Burton Ct,VIC,Bayswater,3153,-37.84706, 145.27298
Decor Cabinets,0421 223 514,,,7 Strathearn Ave,VIC,Murrumbeena,3163,-37.90618, 145.06715
Delightful Cabinets,0414 305 300,,,2/ 18 Salvator Dr,VIC,Campbellfield,3061,-37.671686, 144.964386
Deluxe Interiors OZ,0422 508 019,,info@deluxeinteriorsoz.com.au,Factory 6 72-80 Hampstead Rd,VIC,Maidstone,3012,-37.77758, 144.877812
Design &amp; Construct Cabinetry,0424 172 727,,mark_mchugh@outlook.com,3/ 44 Brunel Rd,VIC,Seaford,3198,-38.100439, 145.145174
Designer Cabinetry,(03) 5167 5677,,info@designercabinetry.com.au,11 Sale Rd,VIC,Maffra,3860,-37.974317, 146.9831619
Diamond Valley Woodcraft Pty Ltd,0408 536 251,,,31 Susan St,VIC,Eltham,3095,-37.720806, 145.140844
Di Fabio L &amp; M,(03) 9471 0384,,,789 High St,VIC,Reservoir,3073,-37.728704, 145.005326
Dinosaur Bros.,0408 991 702,,,,,,,
Discount Kitchens,(03) 8683 9004,,,,,,,-37.934338, 145.037277
Divine Cabinets,(03) 9748 6999,,,4A Nevada Ct,VIC,Hoppers Crossing,3029,-37.87648, 144.70958
DMJ Cabinets,(03) 9706 3086,,,Factory 4 7-9 Futura Rd,VIC,Keysborough,3173,-37.986186, 145.19146
Douthat's Joinery,(03) 5456 3137,,,,,,,
Dragon City Cabinet Makers,(03) 5446 2380,,,129 Victoria St,VIC,Eaglehawk,3556,-36.725167, 144.250144
Design-Line Kitchens,(03) 9769 1314,,,Factory 2 7 Kempson Ct,VIC,Keysborough,3173,-37.99865, 145.18449
Distinctive Cabinets,(03) 9543 9595,,,14 Milgate St,VIC,Oakleigh South,3167,-37.914583, 145.109413
DVS Kitchens,0405 845 065,,Dvskitchens@hotmail.com,8A Poa Ct,VIC,Craigieburn,3064,-37.615521, 144.944092
Eaglewood Kitchen Bathroom &amp; Outdoor,0414 512 814,,eaglewoodkdv@gmail.com,3 Leith Dr,VIC,Mernda,3754,-37.600913, 145.067974
Echuca Hi Way Joinery,(03) 5482 2099,,,8 Matong Rd,VIC,Echuca,3564,-36.145786, 144.763089
Emerald Custom Joinery,0410 541 067,,info@emeraldcj.com.au,3/ 4 Wigan Rd,VIC,Bayswater,3153,-37.845833, 145.280537
Exquisite Cabinet Makers,(03) 9357 8940,,,8 Killara Rd,VIC,Campbellfield,3061,-37.667278, 144.964433
Earl J H &amp; H F,(03) 5461 3446,,,5 Johnson St,VIC,Maryborough,3465,-37.061819, 143.738448
Earnest Cabinet Services,0402 669 132,,,6 Woodbury Ave,VIC,Caroline Springs,3023,-37.718931, 144.738199
Easson Cabinets &amp; Carpentry,0418 314 284,,,370 Gembrook Rd,VIC,Launching Place,3139,-37.810168, 145.583433
Eastbourne Cabinets,0407 180 849,,,31 Aileen Ave,VIC,Montrose,3765,-37.814574, 145.345136
Edge Cabinets,(03) 9397 1887,,,7 Albemale St,VIC,Williamstown North,3016,-37.85156, 144.86639
Elite Cabinets Pty Ltd,(03) 9469 5052,,,Factory 2 34 Tuscan Ct,VIC,Thomastown,3074,-37.68778, 145.00656
Elite Joinery Installations,0418 688 508,,,,,,,-38.03747099, 145.34860338
Eltham Cabinets &amp; Joinery,0416 036 610,,leighbrett@elthamcabinets.com,,,,,-37.6029361, 145.2692926
Emstar Kitchen Cabinets &amp; Furniture,0418 304 109,,tony@emstar.com.au,12 Cliveden Ct,VIC,Thomastown,3074,-37.686706, 145.017701
Endeavour Cabinets,(03) 8900 0259,,endeavourcabinets@yahoo.com,Factory 5 38-44 Dandenong St,VIC,Dandenong,3175,-37.994263, 145.198891
Entire Cabinets &amp; Joinery,(03) 9369 3799,,,34 Industrial Ave,VIC,Hoppers Crossing,3029,-37.86781, 144.72952
Epping Kitchen and Cabinets,(03) 7032 8877,,,15 Quinlan Rd,VIC,Epping,3076,-37.637736, 145.011909
Eyeline Cabinets Pty Ltd,0423 356 370,,,3/ 37 Matisi St,VIC,Thornbury,3071,-37.757093, 145.026719
Eastwood Cabinets Pty Ltd,(03) 9562 7667,,,20 Carinish Rd,VIC,Oakleigh South,3167,-37.915121, 145.108143
E &amp; M Creative Cabinets,(03) 8772 2176,,,6 John St,VIC,Dandenong,3175,-37.998949, 145.217492
ESGEE Joinery and Cabinets,(03) 9330 4509,,esgeejoinery.cabinets123@gmail.com,10 67-75 Garden Dr,VIC,Tullamarine,3043,-37.689673, 144.875312
Ezard Cabinets,(03) 5174 3155,,,,,,,
Facelifts For Kitchens,(03) 9720 5932,,glowood@iinet.net.au,Showroom 8/ 381 Bayswater Rd,VIC,Bayswater,3153,-37.8366, 145.27213
Fine Edge Kitchens,(03) 9773 4416,,,Factory 1/ 213 Wells Rd,VIC,Chelsea Heights,3196,-38.04124, 145.13844
FKI Cabinets,0406 421 491,,mark.filardo@gmail.com,,,,,-37.6723607, 145.0150889
Furncraft,0447 369 520,,,,,,,-37.932495, 145.44072
FAD Joinery,0422 018 847,,fadjoinery@outlook.com,,,,,-37.5120647, 145.1178352
Fairmont Cabinets Pty Ltd,(03) 9421 4600,,,29 Grosvenor St,VIC,Abbotsford,3067,-37.809266, 145.006355
Fares Cabinets,0414 911 248,,fares.cabinets@live.com.au,Unit 22 68 Popes Rd,VIC,Keysborough,3173,-37.983677, 145.1911
Fineform Joinery,(03) 8587 4900,,andrew@fineformjoinery.com.au,Factory 5/ 11 Urban St,VIC,Braeside,3195,-37.99754, 145.11123
Fine Shaving's Custom Cabinet's,(03) 9735 4890,,,,,,,-37.757549, 145.350281
Fine Shavings Custom Cabinets,(03) 9735 4890,,,10 Bramwell St,VIC,Lilydale,3140,-37.767491, 145.374816
Floorline Cabinets,0412 374 420,,floorlinecabinets@hotmail.com,,,,,-38.052059, 145.115906
Franze Woodwork &amp; Design Cabinet Makers Pty Ltd,(03) 9360 9611,,,Fcty 2/ 11 Lentini St,VIC,Hoppers Crossing,3029,-37.87355, 144.72801
Fraser Reynolds Cabinet &amp; Joinery,(02) 6071 2384,,,84 Carmans Rd,VIC,Tallangatta East,3700,-36.226656, 147.278345
Fusion Cabinetmaking,0408 775 178,,,74 Sandells Rd,VIC,Tecoma,3160,-37.904246, 145.345198
F &amp; G Furniture,(03) 9725 5571,,,20 Jesmond Rd,VIC,Croydon,3136,-37.805906, 145.282361
Finesse Cabinet Making,(03) 9466 1707,,,20A Temple Dr,VIC,Thomastown,3074,-37.69027, 145.01763
Future Cabinets,(03) 9460 6666,,,Fcty 1/ 2 Clay Ct,VIC,Thomastown,3074,-37.69198, 144.99159
Gala Cabinets Aus Pty Ltd,0408 826 643,,galafurnitureaus@bigpond.com,Factory 9 29-39 Westwood Dr,VIC,Ravenhall,3023,-37.767067, 144.752063
Geoff Rodgers Cabinets,0409 960 695,,,35 Grayling St,VIC,Belmont,3216,-38.184037, 144.353596
Golden Woodwork,0412 531 584,,goldenwoodwork@live.com.au,Factory 2/ 81 Henry St,VIC,St Albans,3021,-37.734604, 144.798132
GRAYSON DESIGN GROUP,(03) 5277 3082,,,6 Sharon Ct,VIC,Bell Park,3215,-38.107893, 144.343091
Gateway Joinery,(03) 5792 1028,,,4 Darcy St,VIC,Seymour,3660,-37.05493, 145.17148
Gazsal Cabinets,(03) 9793 6266,,,53-55 Sinclair Rd,VIC,Dandenong,3175,-37.98785, 145.19759
Gellibrand Cabinet Works,(03) 9397 6761,,,35 Albemarle St,VIC,Williamstown North,3016,-37.851131, 144.8624
Gemini Interiors,(03) 9792 0771,,,34 Claredale,VIC,Dandenong,3175,-37.997546, 145.22756
Georg Interiors Pty Ltd,0411 510 877,,georgedouralis@gammadoura.com.au,Level 1 422 Bridge Rd,VIC,Richmond,3121,-37.819491, 145.00554
GMC Cabinets,(03) 5428 8855,,,Fcty 3/ 7 Sauer Rd,VIC,New Gisborne,3438,-37.46636, 144.60579
GNJ Cabinets,0403 163 595,,,,,,,-37.6786135, 144.9567861
GOS Australia Pty Ltd,(03) 9459 8944,,,133- 135 McEwan Rd,VIC,Heidelberg West,3081,-37.73158, 145.05378
Graham Cameron Cabinet Maker,(03) 5622 1426,,grahamcameron.cm@bigpond.com,7 Buntine Dr,VIC,Warragul,3820,-38.154276, 145.905112
Grange Joinery Pty Ltd,(03) 9770 8777,,grangejoinery@bigpond.com,Fy 5 56 Lakewood Bvd,VIC,Carrum Downs,3201,-38.09328, 145.16085
G &amp; R Cabinets,(03) 9357 5003,,,Fcty 2/ 36 Killara Rd,VIC,Campbellfield,3061,-37.665097, 144.964833
Greg's Cabinets,0401 860 039,,,,,,,-37.69652787, 144.93092172
Geoff Rodgers Cabinet Maker,(03) 5243 9842,,,35 Grayling St,VIC,Belmont,3216,-38.184037, 144.353596
GoFlatpacks,(03) 5254 3274,,,192-246 Staceys Rd,VIC,Connewarre,3227,-38.256058, 144.422595
Grange Kitchen &amp; Joinery,(03) 9369 2004,,,Fcty 1/ 45 Industrial Ave,VIC,Hoppers Crossing,3029,-37.86654, 144.73167
GV Kitchens,0428 866 527,,gvkitchens@bigpond.com,15 Lemnos North Rd,VIC,Lemnos,3631,-36.363667, 145.461655
Haack's Industries,0438 526 245,,,10 Peart St,VIC,Bairnsdale,3875,-37.840408, 147.591432
Heavenly Kitchens,0420 823 817,,,Marine Parade,VIC,Hastings,3915,-38.289061, 145.204883
Hi-Tech Cabinets,,,info@hitechcabinets.com.au,Nathan Dr,VIC,Campbellfield,3061,-37.649133, 144.941066
Howard Cabinets,(03) 5853 2322,,howardcabinets@live.com.au,301 Allan St,VIC,Kyabram,3620,-36.313031, 145.051768
HAIN Cabinetry,0425 704 867,,,9 Corr St,VIC,Moorabbin,3189,-37.940556, 145.069
Halas Cabinets Pty Ltd,0401 136 508,,,66 Erlston Cct,VIC,Cranbourne,3977,-38.123056, 145.287752
Hallam Kitchens Pty Ltd,(03) 9796 5095,,,Fact 5/2- 4 Keppel Dr,VIC,Hallam,3803,-38.01502, 145.27268
H &amp; H Cabinets Pty Ltd,(03) 9808 4200,,info@hhcabinets.com.au,5 Florence St,VIC,Burwood,3125,-37.857923, 145.111406
HiDesign Joinery,0451 515 449,,,5/ 19 Walter St,VIC,Moorabbin,3189,-37.937966, 145.06523
Hilmo's Cabinets,(03) 5968 9407,,hilmos@iinet.com.au,,,,,-38.0784936, 145.4826278
Hi Tech Furniture,(03) 9311 3386,,,16 Comley St,VIC,Sunshine North,3020,-37.767097, 144.828802
Hogan A L &amp; J R Builders &amp; Cabinet Makers,(03) 5497 1602,,,10/ 14 Corack St,VIC,Donald,3480,-36.378396, 142.988615
Homestead Cabinets &amp; Furniture,(03) 5981 0880,,,Factory 1 58 Collins Rd,VIC,Dromana,3936,-38.33883, 144.98795
Howarth Kitchens Pty Ltd,(03) 9720 5800,,,15 Edelmaier St,VIC,Bayswater,3153,-37.845261, 145.274384
HQA Builder and Building services,0466 601 377,,,14B Bass Ct,VIC,Keysborough,3173,-38.016065, 145.183096
Huxley Furniture,0423 306 779,,peter@huxleyfurniture.com,26A Beatrice Ave,VIC,Heidelberg West,3081,-37.731035, 145.052455
Hargreaves Joinery,(03) 5743 2405,,info@hargreavesjoinery.com.au,2 O'Brien St,VIC,Yarrawonga,3730,-36.028863, 145.993992
Hilmos Cabinets Pty Ltd,0404 877 546,,Hilmos@iinet.net.au,Factory 2 16 Drovers Pl,VIC,Pakenham,3810,-38.098683, 145.497966
Hove Kitchens Pty Ltd,(03) 9728 2644,,,Factory 20 209 Liverpool Rd,VIC,Kilsyth,3137,-37.821326, 145.320042
Hyqual Cabinets,(03) 9728 6855,,,81 Canterbury Rd,VIC,Kilsyth,3137,-37.814067, 145.322344
iB Kitchens,0470 260 254,,talib.ibrahim1@gmail.com,6 Webster St,VIC,Dandenong,3175,-37.993232, 145.215389
Impact Cabinetry &amp; Design,0418 389 770,,impactcabinetry@outlook.com,,,,,
Instyle Interiors Group,0411 505 045,,darrenw@instyle-group.com.au,,,,,-37.2477524, 144.4534898
Inverloch Kitchens &amp; Joinery,0419 353 810,,inverlochkitchens@bigpond.com,18 Bear St,VIC,Inverloch,3996,-38.62984, 145.71891
I Build Cabinets Pty Ltd,0457 339 055,,,8 Village Way,VIC,Maribyrnong,3032,-37.771254, 144.878194
Ideal Cabinets,(03) 5977 4711,,,8 Peacock Rd,VIC,Tyabb,3913,-38.259944, 145.184849
IDG Izmir designer group,0424 948 090,,kaan@izmirdesignergroup.com.au,Unit 1 1 Scammel St,VIC,Campbellfield,3061,-37.648034, 144.943643
Impressive Cabinets,(03) 9791 9758,,impressivecabinets@bigpond.com,18 Commercial Dr,VIC,Lynbrook,3975,-38.04283, 145.248371
Indigo Joinery,(02) 6032 8864,,,120 Sheridan's Bridge Rd,NSW,Rutherglen,3685,-36.06767, 146.44555
Inter-Design Cabinets Pty Ltd,(03) 9532 5860,,,135 Chesterville Rd,VIC,Highett,3190,-37.9486, 145.05743
Interior Cabinetry &amp; Design,0421 514 705,,,1 15 Nevin St,VIC,Thomastown,3074,-37.694623, 145.033314
Interior Custom Design,0477 176 017,,paulaimon145@outlook.com,29 Longview Ct,VIC,Thomastown,3074,-37.688873, 145.045351
ISM Interiors Pty Ltd,(03) 8673 6900,,,24 Halsey Rd,VIC,Airport West,3042,-37.719056, 144.889779
Imlach Made,0421 840 061,,m.g.imlach@gmail.com,Fcty 13/ 35-37 Canterbury Rd,VIC,Braeside,3195,-38.009627, 145.109084
Individual Design &amp; Construction,(03) 9434 4305,,,12 Sherbourne Rd,VIC,Greensborough,3088,-37.711262, 145.114291
Interior Projects by Vereker,0447 920 155,,interiorprojects@outlook.com.au,153 Edgecombe Rd,VIC,Kyneton,3444,-37.230061, 144.463774
Italia Kitchens,(03) 9077 1719,,italiakitchens1@gmail.com,208A Newlands Rd,VIC,Coburg,3058,-37.7221, 144.976814
Jabec Interiors,0433 143 620,,,,,,,
JD Cabinets,0421 314 135,,,18 Charlton Ave,VIC,Cheltenham,3192,-37.962893, 145.041097
JMA Joinery,0422 295 756,,,,,,,-37.795525, 144.771362
J &amp; P Neville,0419 137 842,,,16 Collins Rd,VIC,Dromana,3936,-38.332895, 144.988988
Jacob's Joinery Pty Ltd,0407 778 399,,chris@jacobsjoinery.com.au,Shed 16/22 Walsh Road,VIC,Warrnambool,3280,-38.367548, 142.456687
JAN Cabinets,0403 444 193,,marwan@jancabinets.com.au,94A Killara Rd,VIC,Campbellfield,3061,-37.660541, 144.96509
Jason Karl Eddy,0430 653 500,,alljaysjargon@hotmail.com,Fcty 1/ 8 Sauer Rd,VIC,New Gisborne,3438,-37.466585, 144.606859
Jazdec Kitchens &amp; Bathrooms,0421 487 628,,,Lot 122/ View Gully Rd,VIC,Hopetoun Park,3340,-37.695659, 144.506186
JB Custom cabinet,0421 093 334,,,228 St Germain Bvd,VIC,Clyde North,3978,-38.097329, 145.372266
JB Joinery,0425 835 511,,,3 Mepstead Cl,VIC,Pakenham,3810,-38.096094, 145.484234
Jebba's Creations,0400 939 931,,,18- 20 Intrepid St,VIC,Berwick,3806,-38.03711, 145.33864
Jemson Office Furniture,(03) 9702 3979,,,8 Westpool Dr,VIC,Hallam,3803,-38.015186, 145.263202
Jenkins Cabinets,0425 875 101,,jenkinscabinetmakers@gmail.com,38 Brasser Ave,VIC,Dromana,3936,-38.334044, 144.985161
JGG Cabinets,0407 326 997,,,,,,,-37.918018, 145.035736
JLA Joinery &amp; Kitchens,0400 057 761,,,,,,,-37.5794964, 144.728892
J L Cabinets,(03) 5981 2778,,,U 3 10 Colchester Rd,VIC,Rosebud,3939,-38.37871, 144.88639
JM Specialised Kitchens &amp; Cabinets,0421 568 956,,info@jmskitchensandcabinets.com.au,,,,,-37.8695335, 144.8302375
Joe Palermo Cabinets,(03) 5166 1626,,,11 Warren Tce,VIC,Hazelwood North,3840,-38.27626, 146.49131
John Hood Staff Pty Ltd,(03) 9583 3410,,,5- 7 Charlton Ave,VIC,Cheltenham,3192,-37.96208, 145.0408
Join By Join,0433 339 319,,smellars@bigpond.net.au,,,,,-37.842567, 145.267944
Joinery By Design,1300 113 523,,,,,,,-37.6513007, 145.0890615
Joinery By Dimensions,(02) 6027 1084,,,Suite 7/ 37 High St,VIC,Yackandandah,3749,-36.31269, 146.8382
JRT Cabinets,(03) 9356 9903,,,114 Monroe Ave,VIC,Sunshine North,3020,-37.757386, 144.833766
J.S Cabinets Pty Ltd,(03) 9336 2366,,,Factory 2 12 Cain Ave,VIC,Keilor East,3033,-37.73363, 144.8567
J &amp; T Joinery Pty Ltd,(03) 5721 5085,,,Sinclair Dr,VIC,Wangaratta,3677,-36.364209, 146.294398
J.B. &amp; T.I. Jenkins,0425 875 101,,jenkinscabinetmakers@gmail.com,38 Brasser Ave,VIC,Dromana,3936,-38.334044, 144.985161
J P Joinery,0419 004 631,,,,,,,-37.9519068, 145.1520762
JUSTIN'S JOINERY,0451 837 077,,info@justinsjoinery.com.au,,,,,-38.1083474, 145.2844247
Kan-Do Cabinets,(03) 9464 3099,,,166A Settlement Rd,VIC,Thomastown,3074,-37.694241, 145.040835
Kingston Kitchens &amp; Cabinets,0412 613 215,,ryankingston1@hotmail.com,Toy St,VIC,Longwarry,3816,-38.108025, 145.766186
Kitchens 4 Life,(03) 9574 2727,,,1680 Centre Rd,VIC,Springvale,3171,-37.93316, 145.153727
K M J Cabinets &amp; Design,(03) 9703 1599,,,Factory 9 19- 25 Rimfire Dr,VIC,Hallam,3803,-38.01864, 145.27366
Kara Cabinet,(03) 9357 7186,,,49 Adrian Rd,VIC,Campbellfield,3061,-37.658999, 144.960912
Kassis Kitchens,0414 621 881,,george@kassiscabinets.com,,,,,-37.9918479, 145.1720104
Kentish &amp; Hall Interiors,(03) 5442 5285,,,74 Powells Ave,VIC,East Bendigo,3550,-36.752393, 144.317906
Kevin Gardiner Kitchens,(03) 5662 4462,,kgk@tgpi.com.au,104 Horn St,VIC,Leongatha,3953,-38.4704, 145.959277
Kevin Whitehead,(03) 5232 1988,,,46 Grant St,VIC,Colac,3250,-38.338651, 143.582118
KitchCo Flatpack Cabinets,(03) 5985 6366,,ryekitch@bigpond.net.au,Factory 3 54- 56 Peninsula Ave,VIC,Rye,3941,-38.377757, 144.805869
Kitchen Ambience,(03) 9484 8644,,,221 High St,VIC,Preston,3072,-37.74535, 145.00244
Kitchen Artistry,0433 275 117,,joshsoldani@live.com,3 Roxanne Pl,VIC,Newcomb,3219,-38.173214, 144.398482
Kitchen &amp; Bathrooms Victoria Pty Ltd,(03) 5967 1676,,kitchenbathroomvictoria@gmail.com,40 Paramount Blvd,VIC,Cranbourne West,3977,-38.090452, 145.248609
Kitchen Cabinet Solutions,(03) 9078 5762,,,77 Keys Rd,VIC,Moorabbin,3189,-37.94846, 145.06773
Kitchens &amp; Cabinets,(03) 5962 2201,,,18 Hunter Rd,VIC,Healesville,3777,-37.656861, 145.506737
Kitchens &amp; Cabinets Online,0455 137 527,,jack@kcoaustralia.com,,,,,-36.3667971, 145.4032227
Kitchen Shop The,0407 043 997,,,1667 Centre Rd,VIC,Springvale,3171,-37.931359, 145.148918
Kitchens Just For You,0414 950 647,,,,,,,-36.3569809, 146.3201525
KitchenWise,(03) 5831 2077,,info@kitchenwise.com.au,6 Telford Dr,VIC,Shepparton,3630,-36.375032, 145.424596
Koowee Cabinets,0425 779 537,,kooweecabinets@gmail.com,D 3 381 Rossiter Rd,VIC,Koo Wee Rup,3981,-38.195362, 145.498138
Korumburra Cabinet Makers,(03) 5658 1730,,korumburracabinetmakers@gmail.com,2/ 2 Adkins St,VIC,Korumburra,3950,-38.427009, 145.809676
K &amp; P Cabinets,(03) 9338 3913,,,27 Fraser St,VIC,Airport West,3042,-37.724784, 144.888441
King Darryl J Cabinet Making &amp; Carpentry Services,0425 722 991,,,,,,,
Kitchen Comfort,(03) 5278 9030,,,400 Thompson Rd,VIC,Geelong North,3215,-38.09821, 144.34629
KLR Cabinets,0413 397 464,,admin@klrcabinets.com.au,,,,,-37.964428, 145.055984
Kronen Woodcraft Pty Ltd,(03) 9776 9144,,,7 Cumberland Dr,VIC,Seaford,3198,-38.11355, 145.14017
Lacey Paul,(03) 5562 8240,,,Shed 2 12 Cooper St,VIC,Warrnambool,3280,-38.37263, 142.45842
L.C.M. Cabinets,(03) 9794 7293,,,30 Mills Rd,VIC,Dandenong,3175,-37.990677, 145.195651
Lifestyle Cabinets,(03) 9546 1211,,,3 Fury Ct,VIC,Clayton South,3169,-37.94306, 145.1316
Louies Furniture &amp; Cabinet Maker,(03) 9357 1914,,,Factory 1/53- 61 Horne St,VIC,Campbellfield,3061,-37.68168, 144.96748
Lamipal Pty Ltd,(03) 9438 2839,,,,,,,-37.6742265, 145.1590085
Laser Cabinets Pty Ltd,(03) 9336 1033,,,99 Slater Parade,VIC,Keilor East,3033,-37.730087, 144.860864
Lawrence Chris,0419 103 868,,,61 Princess St,VIC,Campbells Creek,3451,-37.086716, 144.191881
Legendary Cabinets,(03) 9747 8666,,,Fcty 2/ 5 Glenville Dr,VIC,Melton,3337,-37.68616, 144.59376
Leonard Interiors,(03) 9710 1944,,,193 School Rd,VIC,St Andrews,3761,-37.587259, 145.256757
Letho Industries Pty Ltd,(03) 9776 9666,,,5 Apsley Pl,VIC,Seaford,3198,-38.11309, 145.14363
Lifestyle Designs International Pty Ltd,(03) 5942 9290,,,61 Wheeler Rd,VIC,Maryknoll,3812,-38.042896, 145.600325
LJ kitchen and wardrobe,0425 866 770,,ljmx168@gmail.com,,,,,-37.9191499, 145.2355464
L&amp; L kitchens pty Ltd,(03) 9357 8688,,eason@llkitchens.com.au,23-25 Lara Way,VIC,Campbellfield,3061,-37.657297, 144.967945
lsb kitchens,0451 299 144,,lsbkitchens@outlook.com,,,,,-37.649967, 144.92157
Law Somerville Industries,(03) 5127 7066,,sales@lsimoe.com.au,92 Moore St,VIC,Moe,3825,-38.16627, 146.26234
Liberty Kitchens,(03) 5831 2620,,sales@libertykitchens.com.au,60 Williams Rd,VIC,Shepparton,3630,-36.381181, 145.420016
Loddon Cabinets,0418 511 918,,info@loddoncabinets.com.au,77 Old Bridgewater-Serpentine Rd,VIC,Bridgewater On Loddon,3516,-36.52461, 144.014749
Luxe Kitchens Pty Ltd,(03) 9562 7478,,info@luxekitchens.com.au,Fcty 3a/ 7 Valley St,VIC,Oakleigh South,3167,-37.917347, 145.108659
Mac Kitchens,0422 140 025,,,Factory 4/ 1821 Ferntree Gully Rd,VIC,Ferntree Gully,3156,-37.88317, 145.269405
Mastercraft Cabinets Pty Ltd,(03) 9532 5659,,,13 Bricker St,VIC,Cheltenham,3192,-37.951509, 145.070392
Melbourne Pro Cabinets,0414 188 938,,,11 Glenvill Ct,VIC,Templestowe,3106,-37.75897, 145.164056
M J Cabinets,(03) 5998 3592,,,70 McAlpine Rd,VIC,Clyde,3978,-38.163824, 145.371754
mannmade cabinets,0405 320 043,,mannpreet1977@gmail.com,Unit 5 15 Logic Ct,VIC,Truganina,3029,-37.82776, 144.740779
MARBEN Kitchens &amp; Benchtops Pty. Ltd.,0412 109 716,,,2/32 Kevin Ave,VIC,Ferntree Gully,3156,-37.887128, 145.281306
Marcon Cabinets Pty Ltd,(03) 9701 6290,,,23 Boileau St,VIC,Keysborough,3173,-37.998024, 145.186982
Mario Massimini,(03) 9898 5686,,,25 Lexton Rd,VIC,Box Hill North,3129,-37.811311, 145.135125
Mark Cantwell,0427 624 845,,,,,,,-38.4760755, 145.9465869
Martin Fitzmaurice Cabinets Pty Ltd,0418 996 916,,martin@mfcabinets.com.au,,,,,-37.4638364, 144.5965377
Martini Design Pty Ltd,0409 331 528,,adam@martinidesign.com.au,5 Northgate Dr,VIC,Thomastown,3074,-37.693542, 145.038886
Martin Waddington Cabinet Making &amp; Interiors,0423 405 863,,mwaddington70@gmail.com,,,,,-36.995532, 144.0677184
Masterpiece Cabinetry,0421 783 593,,,2/ 8 Charnfield Ct,VIC,Thomastown,3074,-37.690734, 145.021327
Master Style Cabinets Pty Ltd,(03) 9706 8099,,,8 Dunn Crst,VIC,Dandenong,3175,-37.996189, 145.193954
Master Trader Pty Ltd,(03) 9587 4218,,,14-16 Bond St,VIC,Mordialloc,3195,-37.99322, 145.10369
Matric Developments,(03) 9464 2044,,,23A Brock St,VIC,Thomastown,3074,-37.684909, 145.025302
M.C Cabinets,0417 354 335,,mccabinetskitchens@hotmail.com,,,,,-37.023651, 145.1393907
McHutchison Rod,(03) 5625 4882,,,,,,,-38.1362, 145.8571498
McKay Joinery Co Pty Ltd,(03) 9484 1764,,,144 Bell St,VIC,Preston East,3072,-37.746472, 145.019525
Metcab Pty Ltd,(03) 5995 9911,,,Fcty 2/ 9 Gordon St,VIC,Cranbourne,3977,-38.10525, 145.28722
MGH GROUP PTY LTD T/as alba joinery,0493 375 383,,,173 Greens Rd,VIC,Dandenong South,3175,-38.012927, 145.206392
Mighty Cabinet Designs,(03) 9005 1070,,,Thor Complex 15G Thor Ct,VIC,Keilor East,3033,-37.730265, 144.85269
Mikan Cabinets,(03) 9792 4077,,zen1z@optusnet.com,9 Balmoral Ave,VIC,Dandenong,3175,-37.997292, 145.22203
Millgrove Cabinets,(03) 5967 2159,,,23 Brittania Creek Rd,VIC,Wesburn,3799,-37.781196, 145.64457
Minerva Cabinets,(03) 9791 9611,,,3 Dennis St,VIC,Dandenong,3175,-37.999666, 145.225554
MITCH'S KITCHENS,0411 031 518,,mitchskitchensaus@gmail.com,,,,,
M Liburdi &amp; Sons,(03) 5278 7190,,,74- 76 Mornington St,VIC,Geelong North,3215,-38.11585, 144.34811
Moar Cabinets Australia Pty Ltd,(03) 9394 1694,,,8 Stoney Way,VIC,Derrimut,3030,-37.800199, 144.755609
Mobeta Kitchens,0401 445 275,,,69 Parkhurst Dr,VIC,Knoxfield,3180,-37.870747, 145.252858
MODECO KITCHENS,0402 582 519,,,Unit 13 22 Makland Dr,VIC,Derrimut,3030,-37.784631, 144.774957
Modern Cabinets,(03) 9555 6415,,,6 Corr St,VIC,Moorabbin,3189,-37.941, 145.06847
Montan Interior Design,0413 681 287,,,281- 285 Rex Rd,VIC,Campbellfield,3061,-37.64708, 144.96262
Moorabbin Cabinets,(03) 9555 7571,,,8 Tabbita St,VIC,Moorabbin,3189,-37.943079, 145.063244
Mason D J Cabinets,(03) 9720 3151,,,Factory 14 172 Canterbury Rd,VIC,Bayswater,3153,-37.8254, 145.28536
Melbourne Joinery Services,0450 106 306,,matt@melbournejoinery.com.au,12/ 513-515 Maroondah Hwy,VIC,Ringwood,3134,-37.797722, 145.251777
MSA Cabinets,(03) 9699 2544,,,99 Thistlethwaite St,VIC,South Melbourne,3205,-37.832459, 144.950538
My New Cabinets,0400 453 851,,mync@mynewcabinets.com.au,,,,,-38.11823, 144.34846
Nantak Kitchens,(03) 9335 3407,,,,,,,
Neville J &amp; P,(03) 5987 1462,,,16 Collins Rd,VIC,Dromana,3936,-38.332895, 144.988988
N.M Cabinets,0417 326 896,,,,,,,-37.7668591, 145.0927108
Nu-Line Cabinets Pty Ltd.,(03) 9458 2522,,,36 - 40 Northern Rd,VIC,Heidelberg West,3081,-37.72954, 145.04673
Narby Cabinets,(03) 5963 7190,,narbycabinets636@bigpond.com,636 Maroondah Hwy,VIC,Narbethong,3778,-37.548679, 145.663487
N.D.N Cabinets &amp; Distributors Pty Ltd,(03) 9557 9191,,,99 Brewer Rd,VIC,Bentleigh,3204,-37.921791, 145.036474
N.E.T. Cabinets,0407 554 540,,,,,,,-37.842567, 145.267944
New Image Cabinets Pty Ltd,(03) 9794 5555,,,Fctry 2/ 11 Superior Dr,VIC,Dandenong,3175,-38.03214, 145.20388
Newtown Kitchens &amp; Cabinets,(03) 5278 6688,,,Factory 5 / 2A Backwell St,VIC,Geelong North,3215,-38.124159999999996, 144.34836
Next Gen Industries Pty Ltd,(03) 9314 9088,,,65 Patch Cct,VIC,Laverton North,3026,-37.829311, 144.81159
No Fuss Kitchens,1300 767 729,,,221 High St,VIC,Preston,3072,-37.74535, 145.00244
North Geelong Kitchens &amp; Cabinet Makers,(03) 5278 3103,,,16 Morgan St,VIC,Bell Park,3215,-38.100061, 144.343576
Novelty Kitchens,(03) 9798 1717,,,6B Kempson Ct,VIC,Keysborough,3173,-37.99876, 145.183536
Network RV pty Ltd,(03) 9357 8914,,,47 Merola Way,VIC,Campbellfield,3061,-37.654661, 144.960682
Nickson &amp; Burke,0408 536 251,,showroom@nicksonandburke.com.au,31 Susan St,VIC,Eltham,3095,-37.720806, 145.140844
N &amp; T Cabinets,0422 387 970,,geelongcustomcabinets@hotmail.com,10 12 Gravel Pits Rd,VIC,South Geelong,3220,-38.170887, 144.362226
NU Wave Cabinets,0418 312 250,,,,,,,-37.8795844, 147.9916047
One 8th Joinery,0435 085 231,,info@one8thjoinery.com.au,25/ 155 Hyde St,VIC,Yarraville,3013,-37.81508, 144.897777
Padbury Woods Pty Ltd,(03) 9776 9879,,,Fcty 1/ 85 Bardia Ave,VIC,Seaford,3198,-38.11861, 145.13484
Peninsula joinery specialist,0431 415 747,,nickhum8@gmail.com,,,,,-38.15361, 145.18457
P &amp; M Designer Joinery,0408 594 904,,,34 Standing Dr,VIC,Traralgon East,3844,-38.191227, 146.567108
Prestige Country Cabinets,(03) 5433 3044,,rohan.samara@bigpond.com,94 High St,VIC,Heathcote,3523,-36.924865, 144.711479
Paradise Kitchen Cabinets,(03) 9364 7458,,,7 Douglas St,VIC,Sunshine North,3020,-37.765131, 144.844242
Pars Cabinet,0450 901 861,,parscabinet@yahoo.com.au,111C Spring St,VIC,Reservoir,3073,-37.72792, 145.000573
Patho Creek Fine Furniture,0418 505 080,,,159 Patho Cemetery Rd,VIC,Patho,3564,-35.999323, 144.47265
Paul &amp; Tara,0423 352 354,,mailpaultara@gmail.com,,,,,-37.7805387, 144.8571098
Payton Industries Pty Ltd,0419 102 099,,,Factory 3 31 Peel St,VIC,Eltham,3095,-37.71933, 145.14051
Perennial Kitchens,1300 885 893,,,,,,,
Perfect Square,0414 431 335,,Rob.Finn@perfectsquare.com.au,181 Inkerman St,VIC,St Kilda,3182,-37.865396, 144.989216
Phillip Island Cabinets,0430 031 892,,,,,,,-38.4511477, 145.2389796
Phil McCann Joinery &amp; Kitchens,0409 334 266,,psmccann@optusnet.com.au,5 Shearers Run,VIC,Maiden Gully,3551,-36.742875, 144.195317
Phoenix Cabinets Pty Ltd,1300 551 150,,,8 / 34 Stephen Road,VIC,Dandenong South,3175,-38.00851, 145.21224
P N Industries,(03) 9706 7504,,,26 Attenborough St,VIC,Dandenong,3175,-37.986371, 145.201021
Porky's Kitchen Cabinets,0418 378 854,,,,,,,-37.7689052, 144.8300556
Precision Cut Cabinets,(03) 9794 5885,,,23A Amberley Crst,VIC,Dandenong South,3175,-38.00168, 145.215066
Premier Cabinets &amp; Fit Outs,0401 249 158,,dale@premiercfo.com.au,3/ 44 Brunell Rd,VIC,Seaford,3198,-38.100439, 145.145174
Premium Cabinets,(03) 9735 4100,,premiumcabinets@bigpond.com,24 Industrial Park Dr,VIC,Lilydale,3140,-37.749424, 145.348935
Probuilt Pty Ltd,(03) 9775 0999,,,Fcty 1/ 22 Tova Dr,VIC,Carrum Downs,3201,-38.10186, 145.16324
Pro Edge Commercial Joinery,(03) 9330 0303,,,32 King St,VIC,Airport West,3042,-37.723179, 144.888356
Pro-Finish Cabinets,(03) 9335 4775,,,39A Hawker St,VIC,Airport West,3042,-37.722404, 144.888349
Protek Cabinets,(03) 5940 0022,,,Fcty 1/ 7-9 Bormar Dr,VIC,Pakenham,3810,-38.08658, 145.50181
Pylo Cabinets,(03) 9808 8042,,dina@pylo.com.au,77 Burwood Hwy,VIC,Burwood,3125,-37.850447, 145.099692
P.B. Cabinets (Vic) Pty Ltd,(03) 9729 0800,,philip@pbcabinets.com.au,3A Turbo Dr,VIC,Bayswater North,3153,-37.825811, 145.278377
P.K. Kitchens,(03) 9720 6491,,,Factory 5 5 Burgess Rd,VIC,Bayswater North,3153,-37.82143, 145.2885
Prestige Cabinetmakers,(03) 9720 9233,,email@prestigecabinetmakers.com,Fcty 5/ 11 Clare St,VIC,Bayswater,3153,-37.84324, 145.28223
Pylo Cabinets Div. Of PyloSteel Furniture Pty Ltd,(03) 9808 8042,,,26 McIntyre St,VIC,Burwood,3125,-37.85172, 145.10432
Queens Living Furniture &amp; Kitchens,0433 970 303,,,635-655 Waverley Rd,VIC,Glen Waverley,3150,-37.886601, 145.156657
Rj'z Installations,0434 035 090,,,253 Bayview Rd,VIC,McCrae,3938,-38.363087, 144.919035
S &amp; A Cabinets,(03) 9587 5455,,,14 DeHavilland Rd,VIC,Mordialloc,3195,-37.98687, 145.10102
Seren Cabinets,0402 832 384,,serencabinets@gmail.com,Unit 7 13-17 Crawford St,VIC,Braeside,3195,-38.006277, 145.111539
Smitty's Kitchens &amp; Cabinets,0438 044 706,,,75 Williamsons Rd,VIC,South Morang,3752,-37.64471, 145.089963
Stateline Cabinets Pty Ltd,(02) 6024 3982,,,73 Thomas Mitchell Dr,VIC,Wodonga,3690,-36.132489, 146.89972
Saward Joinery Solutions Pty Ltd,(03) 9562 9066,,,1295 North Rd,VIC,Huntingdale,3166,-37.911458, 145.104807
Schier Cabinet Makers,(03) 5381 1788,,,88 Wilson St,VIC,Horsham,3400,-36.716271, 142.197946
Scott Crosby's Cabinets,0419 351 207,,,17 Lucas Ave,VIC,Kilsyth,3137,-37.81481, 145.3133
S C Weir Cabinets,(03) 5987 2666,,,Unit 3/ 32B Collins Rd,VIC,Dromana,3936,-38.33481, 144.98868
S C Weir Cabinets Pty Ltd,(03) 5987 2666,,info@scweircabinets.com.au,Unit 3 32 Collins Rd,VIC,Dromana,3936,-38.334829, 144.988942
SC Weir Cabinets PTY LTD,(03) 5987 2666,,info@scweircabinets.com.au,32 Collins Rd,VIC,Dromana,3936,-38.334813, 144.988677
Seavern Cabinets Pty Ltd,(03) 9588 1875,,,16 Downard St,VIC,Braeside,3195,-37.99195, 145.110431
Seytim Pty Ltd,(03) 9543 7269,,enquiries@seytim.com.au,29-31 Clarinda Rd,VIC,Clarinda,3169,-37.930222, 145.09973
Shelf Life,0407 774 664,,shelflife@optusnet.com.au,,,,,-37.882195, 144.983109
Sherwood Handcrafted Furniture,(03) 9752 9846,,john.c.coyle@bigpond.com,9 Sherwood Way,VIC,Lysterfield,3156,-37.92056, 145.289723
Silhouette Cabinets &amp; Kitchens,0418 592 961,,silhouettecabinets21@hotmail.com,Factory 2 9 June Ave,VIC,Dromana,3936,-38.33379, 144.98701
Silverfern Interiors Pty Ltd,(03) 9792 0199,,,49 Stephen Rd,VIC,Dandenong South,3175,-38.007067, 145.212709
Slater Cabinets,(03) 9331 6800,,,94 Slater Parade,VIC,Keilor East,3033,-37.731879, 144.859913
Slenderline Cabinets,(03) 5450 3001,,kitchens@malleenet.net.au,4-6 Tate Dr,VIC,Kerang,3579,-35.74712, 143.92499
SM Designer Cabinets,0411 952 098,,s.mdesignercabinets@gmail.com,,,,,-37.8473788, 144.6884754
SNO Installs,0452 644 141,,snoinstalls@yahoo.com.au,,,,,-38.1480041, 144.3593453
So Good Cabinets,0419 340 920,,sogoodcabinets@hotmail.com,10 Percy St,VIC,Heidelberg West,3081,-37.73161, 145.05096
South Coast Kitchens,(03) 5956 7415,,,28 Boys Home Rd,VIC,Newhaven,3925,-38.512571, 145.352599
Speedy Kitchens,0422 332 671,,info@speedykitchens.com.au,,,,,-37.6459946, 145.0404214
Splintered Furniture &amp; Joinery Pty Ltd,0437 754 855,,,2 Sykes Pl,VIC,Ocean Grove,3226,-38.253422, 144.537372
Splinters Joinery,0427 944 628,,splinters1@bigpond.com,19 Princes Hwy,VIC,Stratford,3862,-37.962575, 147.087566
Spooner Cabinets,(03) 5852 1648,,,4 Crichton Rd,VIC,Kyabram,3620,-36.306253, 145.033924
S &amp; R Dezyne,(03) 9553 0169,,,3B Horscroft Pl,VIC,Moorabbin,3189,-37.93545, 145.04113
Steding Interior &amp; Joinery,(03) 9748 3800,,,Fcty 2/ 111 Elm Park Dr,VIC,Hoppers Crossing,3029,-37.87248, 144.72089
Stephenson's Kitchens &amp; Joinery Centre,(03) 5562 8255,,info@stephensonskitchens.com.au,15 Robson St,VIC,Warrnambool,3280,-38.37325, 142.455367
Stocks Fine Furniture,(03) 9887 2556,,,,,,,-37.8699492, 145.237095
Straitline Joinery Pty Ltd,(03) 5762 3349,,,4-6 Lowry Pl,VIC,Benalla,3672,-36.552267, 145.986727
Studio Nine Cabinets,0419 337 888,,,,,,,-37.7635209, 144.9440263
Sunraysia Billiard Table Services,0417 580 716,,,,,,,-34.2105906, 142.1419289
Supreme Cabinets,(03) 9399 4144,,,,,,,-37.8346613, 144.8475459
Surface Interiors,0411 069 003,,,,,,,-37.9488552, 145.0428519
Seaview Cabinets,0403 155 843,,info@seaviewcabinets.com.au,11A Amberley Cres,VIC,Dandenong South,3175,-38.002053, 145.215632
Smith &amp; Smith Cabinet Makers,(03) 9755 4811,,,860 Doncaster Rd Cnr Middlesborough Rd,VIC,Doncaster East,3109,-37.787414, 145.14416
Starlight Cabinets,0419 514 550,,hans.streubel@bigpond.com,,,,,-37.782736, 145.6103123
Surreal Cabinets,0421 132 827,,surrealcabinets@hotmail.com,,,,,-37.8436842, 144.8849478
Tailored Interiors Pty Ltd,(03) 9798 8000,,,4 / 8 Tower Ct,VIC,Noble Park,3174,-37.98196, 145.18941
Temple Cabinets Pty Ltd,(03) 9753 6333,,,Factory 27/ 12 Edina Rd,VIC,Ferntree Gully,3156,-37.875101, 145.28323
T &amp; J Kitchen and Cabinet,0416 102 087,,tjkitchenscabinets@gmail.com,,,,,-37.7444301, 142.0219694
Trimcut Cabinets,0449 189 859,,,,,,,-37.4333249, 144.7456177
Taranto Joinery,0418 808 801,,info@tarantojoinery.com,,,,,-37.6459946, 145.0404214
Tarrion Kitchens Pty Ltd,(03) 5975 2599,,,Fy 10 19 Bruce St,VIC,Mornington,3931,-38.23339, 145.05896
Taurus Cabinets Pty Ltd,0425 725 846,,,,,,,-37.813985, 144.963114
Taylor Made Joinery,(03) 5144 6750,,admin@taylormadejoinery.com.au,6-10 Invictus Ct,VIC,Sale,3850,-38.10257, 147.08839
Terry Cartwright Kitchens Pty Ltd,(03) 5752 2301,,cartwrightkitchens@bigpond.com,3 McGeehan Crst,VIC,Myrtleford,3737,-36.555583, 146.720926
The Kitchen Installation Company,(03) 9357 8995,,TheKitchenInstallationCompany@workmail.com,Factory 22/ 35-37 Jessica Rd,VIC,Campbellfield,3061,-37.659982, 144.958181
The Kitchen Renovator,0411 606 492,,thekitchenrenovator@outlook.com,,,,,-37.5608013, 143.854986
Thorwesten Cabinets,(03) 5940 1069,,,12 Bate Cl,VIC,Pakenham,3810,-38.088024, 145.504518
TopForm cabinets,0417 785 294,,daniel@topformcabinets.com.au,,,,,-38.36865588, 144.91368736
Topline Kitchens,(03) 5243 9875,,,19 Wilray St,VIC,Grovedale,3216,-38.194511, 144.34656
Trademark Cabinets,(03) 9330 4244,,,4A Silicon Pl,VIC,Tullamarine,3043,-37.713639, 144.8714293
Transart Cabinets,0412 372 190,,sales@transartcabinets.com.au,Factory 1 / 1 Brett Dr,VIC,Carrum Downs,3201,-38.09782, 145.16254
Triple C Cabinets,(03) 9789 7146,,,27 Gardeners Rd,VIC,Langwarrin South,3911,-38.182764, 145.190364
T &amp; S Cabinets,0412 843 781,,Shivonne1@telstra.com,Watergardens St,VIC,Watergardens,3038,-37.7031663864, 144.77382586
Tulip Kitchens &amp; Designs,0433 235 127,,sales@tulipkitchens.com,Studio 1, 10-18 Fitzroy Sq,VIC,North Geelong,3215,-38.114191, 144.348351
TwinBays Cabinet Solutions,(03) 5985 5300,,,Fcty 5/ 56 Peninsula Ave,VIC,Rye,3941,-38.377759999999995, 144.80587
TCS Total Cabinetry Solutions,(03) 9725 0285,,,,,,,
Thyme For Kitchens &amp; Cabinets,(03) 5976 8142,,thymekitchens@bigpond.com,108 Watt Rd,VIC,Mornington,3931,-38.234153, 145.062996
Triholm Cabinets Pty Ltd,(03) 9369 3757,,,81-83 Triholm Ave,VIC,Laverton,3028,-37.8684, 144.75596
Tyson Cabinets,0412 615 007,,,10 Simon Ct,VIC,Brookfield,3338,-37.69406, 144.55874
UKC Unique Kitchens &amp; Cabinets,0411 663 377,,,,,,,
Unicraft Joinery,(03) 5572 5441,,,7-11 Ballarat Rd,VIC,Hamilton,3300,-37.74166, 142.03367
Vic Wide Kitchens,0406 406 510,,ahmad.hammoud@vwk.com.au,1/ 50 Camp Rd,VIC,Broadmeadows,3047,-37.688657, 144.955104
Walnaring Building,0418 387 678,,,175 Haleys Gully Rd,VIC,Hurstbridge,3099,-37.63054, 145.17145
West City Cabinets,(03) 9369 0891,,,4 Horn St,VIC,Hoppers Crossing,3029,-37.868356, 144.724786
Whiters Street Cabinets,(03) 5155 3566,,,47 Whiters St,VIC,Lakes Entrance,3909,-37.87221, 148.000374
Woodcraft Interiors,(03) 9717 3425,,michael@woodcraftinteriors.com.au,Rear 861 Bridge Inn Rd,VIC,Doreen,3754,-37.60353, 145.12936
WATTLE WARDROBE DESIGNS PTY. LTD.,0451 287 206,,,17B Eucumbene Dr,VIC,Ravenhall,3023,-37.763412, 144.747427
W &amp; B Cabinets Pty Ltd,(03) 5941 9745,,,9 Embrey Ct,VIC,Pakenham,3810,-38.084726, 145.498308
Webster Kitchens,(03) 9792 0298,,,15 Amberley Cres,VIC,Dandenong South,3175,-38.00178, 145.215863
West Gippsland Joinery,0407 505 002,,gippjoin@sympac.com.au,61 Nilma Shady Creek Rd,VIC,Nilma North,3821,-38.157474, 145.988819
Westside Renovations &amp; Installations,0403 789 690,,,,,,,-38.1735477, 144.5699513
WG Cabinets,,,wgcabinets@hotmail.com,,,,,-38.1611548, 145.9318239
Whiteside Laminates Pty Ltd,(03) 9764 2845,,,11 Macro Ct,VIC,Rowville,3178,-37.909533, 145.246057
Wilfit Interiors,(03) 9708 6877,,,,,,,-38.0176839, 145.2710966
Wilko Cabinets Pty Ltd,0419 575 374,,wilkocabinets@bigpond.com,,,,,
Woodland Joinery,(03) 9775 1775,,,7 Concord Crst,VIC,Carrum Downs,3201,-38.10055, 145.169085
Woodtech: Joinery Pty Ltd,(03) 9939 8464,,,13 Fraser St,VIC,Airport West,3042,-37.724911, 144.889639
World Class Cabinets Pty Ltd,(03) 9543 1413,,,Factory 3/ 500 Clayton Rd,VIC,Clayton South,3169,-37.938587, 145.117459
Werribee Kitchen Centre Pty Ltd,(03) 9741 7300,,,27 Lock Ave,VIC,Werribee,3030,-37.912251, 144.662692
White Lace Joinery,0435 228 516,,whitelacejoinery@gmail.com,,,,,-38.0610249, 145.4100319
W Joinery,0431 633 310,,wjoinery@hotmail.com,Factory 5 112 Colemans Rd,VIC,Carrum Downs,3201,-38.087736, 145.168455
Woulfe Cabinets,(03) 5981 2644,,julieshoward@bigpond.com.au,Fcty 1/ 3 Newington Ave,VIC,Rosebud,3939,-38.380359999999996, 144.88621999999998
Xtreme Cabinets &amp; Kitchens,(03) 5977 9211,,xtremecabinets@gmail.com,Fcty 2/ 34 Guelph St,VIC,Somerville,3912,-38.222281, 145.180691
YINGAO PTY LTD,0403 273 217,,ljw33669@sohu.com,Unit 2 39 Foden Ave,VIC,Campbellfield,3061,-37.648217, 144.940367
Young Built Cabinets,(03) 9793 5595,,,Factory 1/ 21 Balmoral Ave,VIC,Dandenong,3175,-37.99695, 145.2229
Youngbuilt Cabinets,0425 824 242,,,Fac 1 21 Balmoral Ave,VIC,Dandenong,3175,-37.99695, 145.2229
Acclaim Cabinets,(08) 9248 8073,,sam@acclaimcabinets.com.au,Unit 2 5 Arvida St, WA,Malag,6090,-31.85772, 115.88481
All About Wood,(08) 9497 1211,,,Unit 2 13 Byron Rd, WA,Armadal,6112,-32.17023, 116.01014
Anton Cabinet &amp; Joinery Works,(08) 9272 3484,,,25 Irvine St, WA,Bayswate,6053,-31.910873, 115.919
Artifex Cabinetry,0438 046 306,,,,,,,-31.7903838, 115.8197973
Active Cabinets,(08) 9310 4800,,,,,,,-32.078583, 115.8588424
Adate Furniture,(08) 9418 6521,,,Unit 1/ 5 Port Kembla Dr, WA,Bibra Lak,6163,-32.09442, 115.80145
Additional Cabinets,(08) 9248 4777,,,10 Glyde Ct, WA,Malag,6090,-31.865587, 115.906014
A &amp; J Custom Interiors,(08) 9248 1775,,,Unit 2/ 29 Montgomery Way, WA,Malag,6090,-31.858923, 115.88351
Albany Fine Furniture,(08) 9842 8555,,,31 Hercules Crst, WA,Alban,6330,-35.01196, 117.87592
Albany Rainbow Kitchens,(08) 9842 3859,,reception@rainbowft.com.au,17-21 Cockburn Rd, WA,Alban,6330,-35.01572, 117.89597
All Cabinet Services,(08) 9367 7800,,,Unit 5 22 Cohn St, WA,Carlisl,6101,-31.98578, 115.92184
Alltech Cabinets,(08) 9459 0632,,,6 McIntyre Way, WA,Kenwic,6107,-32.043047, 115.973702
Allwest Cabinets,(08) 9274 0165,,johnallwest@hotmail.com,22 Military Rd, WA,Bellevu,6056,-31.901872, 116.017464
Alsoma Homes,0439 970 440,,alex@alsoma.com.au,345 Victoria Rd, WA,Malag,6090,-31.86104, 115.890825
Alternative Kitchen Company,(08) 9249 2210,,,Unit 1 / 29 Montgomery Way, WA,Malag,6090,-31.85892, 115.88351
Andrew Wall Cabinets,0419 968 853,,,,,,,-31.9014641, 116.165723
Anything Cabinets,0405 266 102,,,,,,,-32.1521033, 116.0147678
Apel Designs,(08) 9414 6803,,,78 Lydon Blv, WA,Atwel,6164,-32.13441, 115.8613
Apollo Cabinets,(08) 9250 1553,,apollocab@iinet.com.au,Unit 1/ 32 Meliador Way, WA,Midval,6056,-31.892475, 116.037136
Appearance Cabinets,(08) 9524 5283,,,,,,,
A.R.B. Cabinets,(08) 9726 0160,,arb.cabinets@bigpond.com,Lot 66 Andrew Foord Way, WA,Picton Eas,6229,-33.35751, 115.679311
ARTRA CUSTOM KITCHENS AND COMMERCIAL CABINETS,0488 441 910,,,31 Harries Way, WA,Pinjarr,6208,-32.614635, 115.84849
Artra Custom Kitchens &amp; Commercial Cabinets,0488 441 910,,info@artra.com.au,30 Churchill St, WA,Narembee,6369,-32.064951, 118.392768
A &amp; S Cabinets,(08) 9306 2188,,,,,,,-31.7518972, 115.8038965
ASP Cabinets,0420 964 441,,,,,,,-32.005856, 115.9900965
Ansil Cabinets,0407 007 830,,,3 Malcolm Rd, WA,Maddingto,6109,-32.041935, 115.984192
Artform Industries,(08) 9443 3188,,info@artformindustries.com.au,Unit 1 71 Howe St, WA,Osborne Par,6017,-31.908009, 115.813935
Avon Joinery,(08) 9622 1334,,,163 Mitchell Ave, WA,Northa,6401,-31.662537, 116.649474
BAC Custom Cabinets &amp; Kitchens,(08) 9291 9825,,brett@backitchens.com.au,25 Banksia Rd, WA,Wallisto,6076,-31.995437, 116.071125
Blue Tree Cabinets,0438 241 668,,,32 Strickland St, WA,Bunbur,6230,-33.335992, 115.644797
Bretts Home &amp; Cabinet Services,(08) 9434 3949,,,Unit 12/ 15 Port Kembla Dr, WA,Bibra Lak,6163,-32.09669, 115.80139
Bunbury Custom Cabinets,0411 431 163,,bunburycustomcabinets@mail.com,3/ 5 Wallis Rd, WA,Davenpor,6230,-33.359916, 115.679427
Bay Cabinets,(08) 9754 2055,,baycabs@compwest.net.au,Unit 4 39 Bunbury St, WA,Busselto,6280,-33.66118, 115.34723
Bayswater Cabinets,(08) 9271 5042,,mail@cabinets.net.au,24 John St, WA,Bayswate,6053,-31.909308, 115.919977
B &amp; B Cabinets,(08) 9726 0051,,,9 Worcestor Bend, WA,Bunbur,6230,-33.367885, 115.674932
BDS Cabinets &amp; Custom Furniture,0433 821 566,,bryantsteel84@gmail.com,1 Barfield Rd, WA,Hammond Par,6164,-32.159546, 115.853291
Bluey's Cabinets,(08) 9417 7759,,,Unit 1/ 53 Biscayne Way, WA,Jandako,6164,-32.124888, 115.871929
Boboulo Mobile Cabinet,(08) 9249 9912,,joseph.boboulo@bigpond.com,Unit 15/ 41 Holder Way, WA,Malag,6090,-31.85971, 115.89275
Bonannella Cabinets,(08) 9302 6577,,,Unit 2/ 9 Endeavour Way, WA,Wangar,6065,-31.80113, 115.83135
Boomerang Cabinets,0433 311 606,,boomerangcabinets@yahoo.com.au,Unit 8 39 Beringarra Ave, WA,Malag,6090,-31.86313, 115.897993
Brockman Phil Cabinets,(08) 9791 2696,,brockmancabinets@bigpond.com,4 Mummery Crst, WA,East Bunbur,6230,-33.336899, 115.652261
Brown Brothers Furniture,(08) 9410 2788,,,25 Sparks Rd, WA,Henderso,6166,-32.152712, 115.77473
Brownridge Joinery Pty Ltd,(08) 9493 2595,,,83 Kelvin Road Corner Of Maddington Road, WA,Maddingto,6109,-32.04225, 115.99276
Build Right Cabinets &amp; Furniture,0418 411 538,,reeganclarke@hotmail.com,,,,,-31.9894667, 116.0089209
Bunbury Designer Cabinets &amp; Furniture,(08) 9791 7337,,bdcf@bigpond.com,Unit 1 87 Albert Rd, WA,East Bunbur,6230,-33.338053, 115.648639
Bunbury Kitchens,0416 911 182,,bunburykitchens@bigpond.com,226 Southwest Hwy, WA,Picto,6229,-33.3514628, 115.6926511
Busselton Cabinet Makers,(08) 9752 3455,,david@busseltoncabinets.com.au,5 Wright St, WA,Busselto,6280,-33.663934, 115.347945
Benchcraft,(08) 9249 3283,,,26 Cusack Rd, WA,Malag,6090,-31.86585, 115.88519
B &amp; P Electrics,(08) 9417 8700,,,Unit 13 30 Dollier Rd, WA,Jandako,6164,-32.121694, 115.87355
Butler Interiors,(08) 9271 4009,,,64 Clavering Rd, WA,Bayswate,6053,-31.913249, 115.918474
Cabico,(08) 9792 3600,,,5 Hales St, WA,Bunbur,6230,-33.32464, 115.639491
Carlino Cabinet Works,(08) 9446 5455,,,38 Sundercombe St, WA,Osborne Par,6017,-31.90227, 115.81546
Centurion Cabinets,(08) 9249 5170,,,61 Mercantile Way, WA,Malag,6090,-31.85813, 115.90422
Colotti Cabinets,0438 112 481,,,,,,,-31.8286761, 116.0198426
Cabinet Impressions,0427 076 281,,info@cabinetimpressions.com.au,21 Competition Way, WA,Wangar,6065,-31.790312, 115.842795
Cabinet Innovations,(08) 9302 1366,,,1/21 Competition St, WA,Wangar,6065,-31.790141, 115.842904
Cabinet Inspirations,(08) 9409 2117,,,Unit 3/ 14 Dellamarta Rd, WA,Wangar,6065,-31.78892, 115.81654
Cabinet Network,(08) 9345 5211,,,,,,,-31.8748932, 115.8283884
Cable Beach Cabinet Makers,0418 920 075,,,3 Haynes St, WA,Broom,6725,-17.965781, 122.222406
Cabtech Pty Ltd,(08) 9249 9695,,,Unit 3/ 11 Oxleigh Dr, WA,Malag,6090,-31.85216, 115.88533
Carnarvon Cabinet Makers,(08) 9941 3672,,ccmakers@wn.com.au,10 Bassett Way, WA,Carnarvo,6701,-24.870863, 113.676026
Carpentech,0418 887 676,,,Unit 2 5 Beneficial Way, WA,Wangar,6065,-31.797452, 115.837338
carpenter and cabinet maker,0401 156 533,,,6 Latham St, WA,Ashfiel,6054,-31.918833, 115.937646
Carpenter Cabinets,(08) 9498 3006,,,4 Keates Rd, WA,Armadal,6112,-32.172829, 116.012536
Carter's Cabinets,0407 644 736,,claire@carterscabinets.com.au,Lot 564/ Dirk Hartog Dr, WA,Nambeelu,6207,-32.506085, 115.86604
Carter's Cabinets Perth - Domestic &amp; Commercial Cabinet Makers,0407 644 736,,infocarterscabinets@gmail.com,174 Dirk Hartog Dr, WA,Nambeelu,6207,-32.501533, 115.872456
CJ's Cabinets,(08) 9410 2324,,hiltonfurniture@bigpond.com,32 Burlington St, WA,Naval Bas,6165,-32.200717, 115.783048
C.J's Cabinets,(08) 9410 2324,,,42B Macedonia St, WA,Naval Bas,6165,-32.20221, 115.78492
Clarke Industries,(08) 9256 1222,,,56 Tullock Way, WA,Canning Val,6155,-32.06294, 115.9333
Classic Cabinetry WA Pty Ltd,(08) 9844 3999,,sales@classiccabinetry.biz,20 Mallard Rd, WA,Willyun,6330,-34.955044, 117.891369
Clohessy Cabinets,(08) 9409 5553,,ben@clohessycabinets.com.au,Unit 4/ 65 Buckingham Dr, WA,Wangar,6065,-31.787721, 115.823289
Continental Joinery,(08) 9291 7193,,,12A Godfrey St, WA,Wallisto,6076,-31.994808, 116.070436
Contour Cabinets,(08) 9331 2254,,,21 Roper St, WA,Oconno,6163,-32.06282, 115.79842
Cotswoods Kitchens,0416 976 489,,,53 Kent St, WA,Canningto,6107,-32.015944, 115.927336
Couch Cabinets,0418 948 016,,,,,,,-31.6721364, 115.707312
Callaghan Cabinets,0455 218 617,,info@callaghancabinets.com.au,,,,,
Caruso Cabinets WA,(08) 9434 4550,,,Unit 2/ 118 Shallcross St, WA,Yangebu,6164,-32.12031, 115.79536
Cochrane Cabinets,0410 556 693,,,Unit 4 / 84 Callaway St, WA,Wangar,6065,-31.791461, 115.843666
Creative Veneers &amp; Furniture,(08) 9398 3970,,,,,,,-32.0716768, 115.9671116
Dale Cabinets,(08) 9399 2557,,,1/ 16 Keates Rd, WA,Armadal,6112,-32.17035, 116.012585
De Coppi Cabinets,0409 954 605,,,,,,,-33.3274145, 115.6360927
Dianella Polishing,(08) 9303 2176,,,Unit 6 86 Inspiration Dr, WA,Wangar,6065,-31.798096, 115.842507
Dream Made Interiors,0403 579 240,,info@dreammadeinteriors.com.au,,,,,-31.95285358, 115.85731416
Danmar,(08) 9309 6111,,,36 Avery St, WA,Neerabu,6031,-31.681373, 115.78518
Danmar Garage Doors,(08) 9309 6111,,sales@danmardoors.com.au,41 Dellamarta Rd, WA,Wangar,6065,-31.788391, 115.822209
Derby Cabinet Makers,(08) 9191 1417,,,7 Le Lievre St, WA,Derb,6728,-17.316632, 123.649776
Difference By Design,(08) 9248 6396,,differencebydesign@bigpond.com,Unit 6/ 40 Oxleigh Dr, WA,Malag,6090,-31.847051, 115.886499
D &amp; J Cabinets,(08) 9455 2120,,,5 Melaleuca Ct, WA,Canning Val,6155,-32.087891, 115.901445
Duncan Cabinets,(08) 9467 2567,,info@duncancabinets.com.au,Unit 6 24 Sundercombe St, WA,Osborne Par,6017,-31.903169, 115.814561
Dunsborough Woodworks,(08) 9756 8428,,,16 Griffin Dr, WA,Dunsboroug,6281,-33.632466, 115.115386
Darryl Cabinets,(08) 9377 4178,,,,,,,-31.8710202, 115.9450229
Dexter's Carpentry Service,(08) 9309 3826,,,Unit 4/ 25 Buckingham Dr, WA,Wangar,6065,-31.78646, 115.81665
Duval Interiors,0401 969 700,,,Unit 3/ 4 Dobra Rd, WA,Yangebu,6164,-32.11733, 115.79666
Exclusive Cabinets And Design Pty Ltd,(08) 9201 1522,,,Unit 2 71 Howe St, WA,Osborne Par,6017,-31.90801, 115.81393
Fremantle Creations,0407 771 599,,,,,,,-32.0991392, 115.7821985
Gunnersen Pty Ltd,(08) 9356 9911,,,79-83 Pilbara St, WA,Welshpoo,6106,-31.98963, 115.94372
Hartley Watson Cabinets by Design,0438 602 072,,,Un 20/ 44 Seventh, WA,Mayland,6051,-31.931454, 115.893858
Hollywood Kitchens,(08) 9302 1156,,,8 Beneficial Way, WA,Wangar,6065,-31.79712, 115.83868
Huntingdale Cabinets,0419 195 298,,huntingdalecabinets2@westnet.com.au,,,,,-32.2569798, 115.9958673
Ian Norrish Cabinets,(08) 9821 4556,,,28 Bay St, WA,Katannin,6317,-33.69882, 117.557709
Interior Cabinets,(08) 9725 9285,,,,,,,
IQ Cabinets,(08) 9249 3644,,iqcabinets@bigpond.com,349 Victoria Rd, WA,Malag,6090,-31.86123, 115.891332
Ittag Interiors,0400 767 510,,,,,,,-31.8286761, 116.0198426
Ideal Doors &amp; Cabinets,(08) 9470 5835,,,25B Adrian St, WA,Welshpoo,6106,-31.995338, 115.920232
Interior Dreams,(08) 9303 2266,,,Unit 5/ 90 Distinction Rd, WA,Wangar,6065,-31.7959, 115.84527
Ironbark Cabinets &amp; Furniture,(08) 9841 1003,,,Unit 4/ 205 Chester Pass Rd, WA,Milpar,6330,-34.986274, 117.874319
Ivo Cabinet Consultants Pty Ltd,(08) 9345 3074,,,18 Gibberd Rd, WA,Balcatt,6021,-31.865143, 115.811952
Ilacqua Cabinets,(08) 9725 7774,,,7 Clifford St, WA,Bunbur,6230,-33.36022, 115.67455
International Cabinets,(08) 9240 9000,,lloydr@internationalcabinets.com.au,,,,,-31.8748932, 115.8283884
Ital Cabinets,(08) 9303 9106,,,78 Christable Way, WA,Landsdal,6065,-31.801641, 115.855583
Ivo Industries Cabinet Works,(08) 9244 4779,,ivoindustries@bigpond.com,Unit 8/ 42 Collingwood St, WA,Osborne Par,6017,-31.903474, 115.815151
Jworks,0467 733 977,,jworks@optusnet.com.au,,,,,-31.8108403, 115.769266
Kustom Interiors,0407 088 579,,info@kustominteriors.com.au,Unit 2 / 21 Prestige Parade, WA,Wangar,6065,-31.796225, 115.846281
Lockyear Cabinets,(08) 9250 1434,,,Unit 7/ 15 Elmsfield Rd, WA,Midval,6056,-31.89262, 116.03419
MacArthur Cabinet Works,(08) 9294 1002,,,3070 Helena Valley Rd, WA,Helena Valle,6056,-31.923628, 116.042988
Ming Carpentry &amp; Cabinet,0417 989 669,,,,,,,-31.8414719, 115.8600455
Mosedale's Cabinets,(08) 9964 6787,,,1/ 16 Box St, WA,Geraldto,6530,-28.74989, 114.63095
MRM Joinery,0423 204 326,,mrmjoinery@gmail.com,,,,,-31.7518972, 115.8038965
Margaret River Cabinets &amp; Joinery,(08) 9757 3656,,,Lot 189 Auger Way, WA,Margaret Rive,6285,-33.965637, 115.06963255
Modern Office Cabinets,0433 323 509,,,,,,,-32.0927293, 115.8407007
MRM Cabinet &amp; Carpentry,(08) 9406 8767,,mrmcabinetmaker@gmail.com,227 Franklin Rd, WA,Wannero,6065,-31.738115, 115.828634
Metric Cabinets &amp; Interiors,0433 823 741,,metriccabinets@gmail.com,,,,,-31.7903838, 115.8197973
Modular Kitchens,(08) 9244 1890,,wastone@westnet.com.au,Unit 4 14 Sundercombe St, WA,Osborne Par,6017,-31.90467, 115.81358
M &amp; S Cabinet Makers,(08) 9725 7943,,mscabinetmakers@bigpond.com.au,2/ 8 Stokes Way, WA,Davenpor,6230,-33.363602, 115.680099
Norm's Cabinets &amp; Tiles,(08) 9071 3453,,,2 Gilpin St, WA,Esperanc,6450,-33.841277, 121.888258
Orange Grove Cabinet Makers,(08) 9452 1779,,,226 Maddington Rd, WA,Maddingto,6109,-32.039394, 116.008033
P &amp; A Cabinets,0412 940 903,,,,,,,-31.7747793, 115.8656521
Peel Cabinets,(08) 9531 3258,,kitchens@peelcabinets.com.au,11 Harries Way (Units 1 and 2), WA,Pinjarr,6208,-32.614253, 115.849016
Picton Cabinets,0419 193 790,,pictoncabinets@bigpond.com,,,,,-33.310396, 115.705785
Prime Cabinets,(08) 6305 0348,,,Unit 2/ 68 Callaway St, WA,Wangar,6065,-31.792878, 115.843689
Paradia Cabinets,(08) 6102 7699,,,Unit 1 21 Kewdale Rd, WA,Welshpoo,6106,-31.9921, 115.94621
Paramount Cabinet,(08) 9592 1626,,,Unit 1 20 Hurrell Way, WA,Rockingha,6168,-32.27421, 115.75591
Park Avenue Cabinets,(08) 9493 2266,,,Unit 6/ 3 Ryelane St, WA,Maddingto,6109,-32.04364, 115.98954
Peter Ferrari Furniture &amp; Cabinetmakers,(08) 9459 6029,,peter@ferrarifurniture.com,12 Orchard Rd, WA,Maddingto,6109,-32.034813, 115.998375
Petgia Cabinets,(08) 9303 9496,,cabinets@petgia.com.au,Unit 2 29 Competition Way, WA,Wangar,6065,-31.790134, 115.842124
Petko Furniture &amp; Cabinet Works,(08) 9418 6558,,,Unit 2/ 16 Salpietro St, WA,Bibra Lak,6163,-32.11355, 115.79605
Pinoy Cabinets Pty Ltd,(08) 9417 8817,,,4/ 49 Biscayne Way, WA,Jandako,6164,-32.124502, 115.872337
Precise Carpentry Service,(08) 9888 1154,,,38 Henry St, WA,Wickepi,6370,-32.78501, 117.49698
PRECISION CABINET MAKERS PTY LTD &amp; THE TRUSTEE FOR J A &amp; L M SCHOOF FAMILY TRUST &amp; The trustee for M &amp; S Schoof Family Trust,(08) 9495 3500,,,30 Gillam Dr, WA,Kelmscot,6111,-32.128924, 116.007071
P.S. Chester &amp; Son,(08) 9921 1459,,leannebarndon@pschester.com.au,1 Alexander St, WA,Utakarr,6530,-28.777858, 114.645606
Pav's Designer Cabinets,0411 223 948,,,Unit 4/ 12 Attwell St, WA,Landsdal,6065,-31.79944, 115.84816
Phoenix Cabinets,(08) 9071 3720,,,Lot 8/ Barook Rd, WA,Esperanc,6450,-33.84314, 121.89581
Premier Cabinet Doors,(08) 9399 6029,,,17 Byron Rd, WA,Armadal,6112,-32.169685, 116.01027
Quick Fit Kitchens,0458 254 085,,quickfitkitchens@hotmail.com,Unit 7 22 Forward St, WA,Welshpoo,6106,-31.992438, 115.917692
Quintrex Cabinets,(08) 9091 8077,,,243 Dugan St, WA,Kalgoorli,6430,-30.756479, 121.459099
Rural Cabinets,0419 610 920,,,,,,,-31.5499974, 116.4677575
Santer Interiors,(08) 6161 5959,,neil@santerinteriors.com.au,43 George St, WA,Midlan,6056,-31.883139, 116.008291
SoftClose Design,0481 554 235,,softclose@outlook.com,Unit 5/ 41 Reserve Dr, WA,Mandura,6210,-32.516055, 115.743708
South Fremantle Cabinet Makers,(08) 9494 1578,,,9B Morse Rd, WA,Bibra Lak,6163,-32.113828, 115.799657
Stylewise Custom Cabinets,(08) 9472 1221,,,Unit 3/ 96 Briggs St, WA,Welshpoo,6106,-31.98438, 115.92865
Sean'S Cabinets,0459 481 603,,seanynye@hotmail.com,,,,,-32.5475271, 115.6998303
Shepherd Craft Furniture,(08) 9244 9400,,,Unit 4/ 5 Pearson Way, WA,Osborne Par,6017,-31.9082, 115.8018
Simply Cabinets,(08) 9755 8111,,simplycabinets@bigpond.com,19A Burler Dr, WA,Vass,6280,-33.679412, 115.233607
Somerville Cabinets,(08) 9091 2788,,somervillecabinets@bigpond.com,,,,,
South Coogee Joinery,(08) 9418 1748,,southcoogeejoinery@bigpond.com,37 Wellard St, WA,Bibra Lak,6163,-32.111325, 115.801243
South East Cabinet Makers,(08) 9881 2072,,,Lot 10 Graham Rd, WA,Narrogi,6312,-32.94959, 117.16946
Squibb Carpentry &amp; Cabinets,0419 215 189,,peter@squibbcarpentry.com.au,142 Beaufort St, WA,Katannin,6317,-33.698802, 117.55876
Straitline Cabinets,0411 441 560,,straitlinecabinets@outlook.com,Unit 5 15 Mummery Cres, WA,East Bunbur,6230,-33.337996, 115.652971
Streamline Cabinets,(08) 9248 6248,,,Unit 5 36 Irvine Dr, WA,Malag,6090,-31.85808, 115.88634
Subiaco Furniture Factory,(08) 9381 6098,,,7 Forrest St, WA,Subiac,6008,-31.948128, 115.821943
Superior Kitchens &amp; Stone,(08) 9841 3122,,,,,,,-35.0146485, 117.8987432
Swan Valley Cabinets,0417 946 596,,bradpittaway@bigpond.com,309 Oakover Rd, WA,Herne Hil,6056,-31.844347, 116.048942
SK Cabinets,0430 456 055,,sk_cabinets@bigpond.com,Unit 1 11A Chullora Bend, WA,Jandako,6164,-32.123695, 115.865536
Southern Cross Kitchens,0438 994 866,,sckitchens@bigpond.com,Unit 6 / 10 Gillam Dr, WA,Kelmscot,6111,-32.13053, 116.008954
Style side Cabinets,0422 324 079,,,,,,,-31.6635553, 116.03695495
Symmetry Cabinets,(08) 9244 4725,,,Unit 12/ 93 Hector St, WA,Osborne Par,6017,-31.90189, 115.81857
Terry Leeder Cabinets,0418 916 967,,,,,,,-33.3274145, 115.6360927
The Woodbridge Cabinet Co.,0424 866 681,,nick@woodbridgecabinetco.com.au,,,,,
Timeless Elegance,0401 543 392,,,,,,,-31.9629593, 115.9346856
TQ Kitchen &amp; Bathroom,(08) 9417 7362,,,Unit 6/ 41 Biscayne Way, WA,Jandako,6164,-32.123688, 115.873497
The Cabinet Factory,(08) 9584 2392,,cabinetfactory@bigpond.com,Unit 4 6 Thornborough Rd, WA,Mandura,6210,-32.512477, 115.753062
Tiling Solutions W.A.,0416 976 489,,,,,,,-32.0438633, 115.7993915
TnT Cabinets,0410 893 661,,tristan@tntcabinets.com.au,Unit 4 14 Keates Rd, WA,Armadal,6112,-32.170843, 116.012538
The Kitchen Factory,(08) 9209 2234,,,,,,,-31.8527056, 115.8813443
TimberWise Cabinets,0418 936 668,,,Unit 6 / 35 Reserve Dr, WA,Mandura,6210,-32.517835, 115.743551
Top Shelf Cabinets &amp; Woodworking,(08) 9248 9400,,,Unit 1/ 272 Camboon Rd, WA,Malag,6090,-31.856466, 115.887535
Trueform Postforming,0438 045 317,,trueform6@bigpond.com,5/83 Motivation Dr, WA,Wangar,6065,-31.79269, 115.83642
U &amp; I Design Furniture P/L,(08) 9274 2709,,,17 Clayton St, WA,Bellevu,6056,-31.898239, 116.018671
Ultimate Design Furnishings,(08) 9455 3293,,,unit 1/43 Tulloch Way, WA,Canning Val,6155,-32.06333, 115.934205
Ultracut CNC,(08) 9302 2850,,,35 Furniss Rd, WA,Darc,6065,-31.805135, 115.844588
Unity Cabinets,0400 022 660,,sales@unitycabinets.com,Unit 1/ 172 Greenlands Rd, WA,Pinjarr,6208,-32.64021, 115.849629
Vagnoni Cabinets,(08) 9409 8766,,info@vagnonicabinets.com.au,Unit 5/ 44 Prindiville Dr, WA,Wangar,6065,-31.79101, 115.82415
Vinyl Tech Doors &amp; Cabinet Systems,0402 773 611,,adam@vinyl-tech.com.au,20 Mordaunt Cct, WA,Canning Val,6155,-32.07076, 115.909181
Woodworks Kitchen &amp; Furniture Design,0419 864 096,,gregus6395@gmail.com,,,,,-33.9916328, 116.8228502
Yanchep Cabinets,(08) 9561 5024,,,6 Glenrothes Crst, WA,Yanche,6035,-31.54479, 115.64104
Zooby Cabinets Pty Ltd,(08) 9140 1500,,zoobycabinets@bigpond.com,12 Munda Way, WA,Wedgefiel,6721,-20.379332, 118.58971

