BUSINESS NAME, PHONE, WEB, EMAIL, STREET, SUBURB, STATE, POSTCODE, GPS LATITUDE, GPS LONGITUDE
Abasol Holdings Pty Ltd,(02) 6239 1588,,,157 Newcastle St,ACT,Fyshwick,2609,-35.326426, 149.173674
A &amp; Co Industries,0427 240 187,,adam@aandco.com.au,,,,,-35.3391813, 149.0759964
AJ's Plumbing Australia,(02) 6166 1287,,,Unit 1 45 Sheppard St,ACT,Hume,2620,-35.390302, 149.168788
Athllon Plumbing Services,0412 630 354,,athllonplumbing@gmail.com,,,,,-35.4041973, 149.0780091
Abbey Plumbing Drainage &amp; Gasfitting,0400 007 171,,,,,,,-35.3725416, 149.0862452
Abbey Plumbing, Drainage &amp; Gasfitting,0400 007 171,,,,,,,-35.3393888, 149.0526718
A.C.T Drain Cleaning and Plumbing,0415 788 850,,actdraincleaningandplumbing@gmail.com,,,,,-35.2635079, 149.121493
ACTEWAGL,1800 768 817,,,ActewAGL House 40 Bunda St,ACT,Canberra,2601,-35.277843, 149.131113
Action Plumbing Pty Ltd,0418 630 505,,office@actionplumbing.net.au,46 Wilson St,ACT,Curtin,2605,-35.334156, 149.076966
Act Now Plumbing &amp; Gasfitting Pty Ltd,,,info@actnowplumbing.com.au,,,,,-35.4124422, 149.1280361
Alliance Plumbing and Gasfitting,0401 013 914,,allianceplumbingandgasfitting@gmail.com,,,,,-35.347476, 149.0355753
A Plus Plumbing,0416 162 972,,,,,,,-33.9024566, 151.0837311
Apollo Trades &amp; Services,0449 214 014,,apollogeneralservices@gmail.com,,,,,-35.4124422, 149.1280361
Around Town Plumbing,(03) 7023 5494,,info@atplumbingmelbourne.com.au,1/ 47 Dingley Ave,VIC,Dandenong,3175,-37.99606, 145.19559
Attention Plumbing Services,0414 476 174,,,,,,,-35.4158638, 149.0897893
Aurora FM,0466 111 904,,admin@aurorafm.com.au,,,,,-35.257598, 149.043414
AusPlumb And Gas,0401 849 763,,enquiries@ausplumbandgas.com.au,,,,,-35.4740518, 149.0930961
Aussie Plumbing Services,(02) 9191 0865,,info@aussieservicesnsw.com.au,,,,,
A.B. Plumbing,(02) 6288 9015,,andrew@abplumbing.com.au,75 Jemalong St,ACT,Duffy,2611,-35.337142, 149.031125
Ajs Plumbing Australia,(02) 6260 2111,,,Unit 2/ 49 Raws Crst,ACT,Hume,2620,-35.39424, 149.16629
A Team Plumbing,0411 638 164,,,,,,,-35.4284723, 149.0908637
Australian Hot Water Canberra,1300 132 113,,,157 Newcastle St,ACT,Fyshwick,2609,-35.326426, 149.173674
Boss Plumbing,0408 161 094,,,,,,,-35.2313864, 149.0267081
Canberra Boilers,(02) 6255 0680,,service@canberraboilers.com.au,U 4b 54 Hoskins St,ACT,Mitchell,2911,-35.215692, 149.137932
Canberra Plumbing &amp; Drains,(02) 6287 7230,,,,,,,-35.3216177, 149.0558099
Cappello Commercial Hydraulics &amp; Civil Pty Ltd,(02) 6242 9420,,admin@cappello.com.au,Unit 3/ 57 Dacre St,ACT,Mitchell,2911,-35.20917, 149.137619
Craig McGregor,0411 550 939,,,,,,,-35.2901933, 149.1537592
Canberra Hot Water and Plumbing,0408 588 088,,,,,,,-35.2635079, 149.121493
Capital Gas Works Pty Ltd,0419 744 434,,officecgw@gmail.com,,,,,-35.2092521, 149.0495599
Clark Electrical &amp; Air Conditioning,0405 939 666,,aaronclarkelectrical@gmail.com,Unit 5/ 12 Sandford St,ACT,Mitchell,2911,-35.220671, 149.142792
Critical Plumbing,0405 294 961,,chris@criticalplumbing.com.au,,,,,-35.1623571, 149.1381382
Canberra Pipe Relining,(02) 6100 6483,,hello@canberrapiperelining.com.au,,,,,-35.3281938, 149.1770535
Capital Plumbing &amp; Drains,0421 038 243,,,,,,,-35.2590497, 149.0639321
Clearwater Trade Waste,(02) 6231 6237,,john.kerry@bigpond.com,30 Bentham St,ACT,Yarralumla,2600,-35.307979, 149.095304
Custom Plumbing Services Pty Ltd,(02) 6280 6560,,admin@customplumbing.com.au,Unit 2 112 Gladstone St,ACT,Fyshwick,2609,-35.3241, 149.18115
David Fraser Plumbing,0419 406 822,,,PO Box 7223,ACT,Duffy,2611,-35.3372165, 149.0320978
Dial A Plumber,1300 342 587,,,,,,,-35.456673, 149.0935008
Diverse Plumbing &amp; Gas,0429 093 818,,plumbingdiverse@gmail.com,,,,,-35.4141522, 149.1097374
Dr Drains,0417 488 933,,,,,,,-35.2800063, 149.0741379
David McReynolds,0418 160 521,,dgmcreynolds@outlook.com,,,,,-34.8423763, 148.9114753
Definitive Plumbing and Gas,0413 425 802,,definitiveplumbing@outlook.com,46 Holden Crst,ACT,Wanniassa,2903,-35.39529, 149.09417425
Delnas Metal Roofing,(02) 6239 3999,,admin@delnas.com.au,32 Geelong St,ACT,Fyshwick,2609,-35.331243, 149.171479
Dickies Home Solutions,0466 821 962,,admin@dickiesplumbinggroup.com.au,,,,,-35.2099835, 149.0118158
Dickies Plumbing Group,0466 821 962,,admin@dickiesplumbinggroup.com.au,,,,,-35.28078181, 149.13139599
Discount Plumbing,0433 009 606,,discountheatcool@gmx.com,,,,,-35.3439693, 149.0833158
Dobija Plumbing,0417 270 911,,,,,,,-35.4275239, 149.1160391
Don't Panic Plumbing &amp; Gasfitting,0407 645 154,,dontpanicplumbing@hotmail.com,,,,,-35.2566213, 149.0796689
Drainright Plumbing &amp; Bathrooms,0412 489 581,,,,,,,-35.3725416, 149.0862452
Drips &amp; Drains Plumbing,0418 480 324,,,Unit 13 9 Beaconsfield St,ACT,Fyshwick,2609,-35.335659, 149.181284
Demand Plumbing,0433 746 118,,demandplumbing@gmail.com,49 Devenport St,ACT,Lyons,2606,-35.336267, 149.07394
Duncan's Plumbing Service,(02) 6254 9822,,office@duncansplumbing.com.au,1/9 Page Pl. Page Shopping Centre,,ACT,Page,2614,-35.23952, 149.0523
Evolve Plumbing &amp; Gas,0412 494 542,,evolveplumbing@yahoo.com,,,,,-35.2313864, 149.0267081
Full Bore Plumbing and Gas.,0430 453 465,,shaun.godbee@hotmail.com,79 Barnard Cct,ACT,Florey,2615,-35.225516, 149.038555
Gravity Plumbing,0407 419 763,,gravityplumbing@hotmail.com,,,,,-35.2626699, 149.1448968
Hillman Plumbing,0402 903 095,,,,,,,-35.3947897, 149.0708601
Hillman Plumbing Drainage &amp; Gas,0402 903 095,,,,,,,-35.3261319, 149.0835347
HYDROMATIC PTY LTD,0402 702 427,,hydromatic@live.com.au,,,,,-35.2478798, 149.1630418
J &amp; B Plumbing,(02) 6292 6457,,jbplumb1@bigpond.net.au,,,,,-35.4284723, 149.0908637
Jimfin Gasfitter Plumber,0439 826 302,,,59 Banfield St,ACT,Downer,2602,-35.238324, 149.145083
JML Plumbing &amp; Gas Pty Ltd,0431 445 094,,office@jmlplumbing.net.au,8 Carlton Pl,ACT,Holt,2615,-35.227519, 149.008581
Just A Plumber,(02) 6286 9149,,admin@justaplumber.com.au,,,,,-35.3642041, 149.0953031
Jet Blast Plumbing,0412 302 040,,admin@jetblastplumbing.com.au,,,,,-35.28078181, 149.13139599
J&amp;J plumbing services,0405 068 445,,j.jplumbingservices@outlook.com,,,,,
J P Verdon Pty Ltd,(02) 6281 5695,,,26 Anderson St,ACT,Chifley,2606,-35.349683, 149.082962
Keva Plumbing,0424 544 161,,pipespeed1@gmail.com,53 Hilder St,ACT,Weston,2611,-35.336594, 149.059197
Leemhuis M Plumbing &amp; Gas,0418 687 031,,edsholdings@optusnet.com.au,,,,,-35.1927863, 149.0440718
Luke Smith Plumbing,0438 261 281,,lrsmith26@bigpond.com,126 Bogan St,NSW,Nyngan,2825,-31.56733, 147.199516
Maintain Services Pty Ltd,1800 444 880,,,,,,,-35.4124422, 149.1280361
Michael Drury Plumbing,0419 415 017,,,,,,,-35.2099835, 149.0118158
Mr Pipes (ACT),0400 923 060,,dom@mrpipes.com.au,,,,,-35.4201615, 149.1361555
Multi Trades ACT,0490 101 059,,info@multitradesact.com.au,,,,,
Matt Taylor Plumbing,0415 488 518,,matttaylorplumb@optusnet.com.au,16 Clisby Cl,ACT,Cook,2614,-35.257087, 149.055969
Mr Pipes,0400 923 060,,,Gellatly Pl,ACT,Gilmore,2905,-35.418232, 149.137022
MSJ Plumbing Group,(02) 6260 1332,,,,,,,-35.3892959, 149.1694219
MW Plumbing,0423 343 732,,,,,,,-35.4284723, 149.0908637
National Plumbing Service Pty Ltd,0408 253 129,,,,,,,-35.3856609, 149.1995814
North &amp; South Plumbing Drainage &amp; Gas Fitting,0422 503 415,,matt.keenplumber@gmail.com,56 Hambidge Crst,ACT,Chisholm,2905,-35.417482, 149.128015
O'Brien Plumbing Tuggeranong,0416 310 318,,,12 Trussell Pl,ACT,Kambah,2902,-35.400383, 149.060161
Old Mate Gas Plumbing,(02) 6254 6576,,tim@oldmateact.com.au,,,,,
O'Neill &amp; Brown Plumbing Co Pty Ltd,(02) 6297 2022,,,13 Bedford St,NSW,Queanbeyan West,2620,-35.350869, 149.204927
Optimum Plumbing &amp; Gasfitting,0419 141 740,,,,,,,-35.4463114, 149.1195513
Oldmate ACT,,,tim@oldmateact.com.au,2 Lysaght St,ACT,Higgins,2615,-35.2313864, 149.0267081
Oldmate Gas &amp; Plumbing Services,0418 432 297,,bec@oldmateact.com.au,,,,,-35.2153575, 149.1415141
On The Spot Plumbing Service,(02) 6255 0579,,,Unit 2/ 13-23 Buckland St,ACT,Mitchell,2911,-35.21754, 149.13999
On Track Plumbing &amp; Gasfitting,0405 357 990,,adam@ontrackplumbing.com.au,2 Gurrang Ave,ACT,Ngunnawal,2913,-35.171066, 149.11011
Oxy Plumbing,0435 456 698,,info@oxyplumbing.com.au,10 Companion Cres,ACT,Flynn,2615,-35.212737, 149.045112
P1 Plumbing &amp; Electrical,0422 489 438,,info@p1plumbingandelectrical.com.au,,,,,-35.20125264, 149.11201459
PFM Plumbing,0412 628 538,,,18 Brinsmead St,ACT,Pearce,2607,-35.36743, 149.08017
Plumbing Inspirations,0438 570 077,,,,,,,-35.2027358, 149.1328633
Prestige Plumbing,0484 199 513,,prestigeplumbers@gmail.com,11 Forace St,ACT,Casey,2913,-35.169277, 149.098157
P1 Plumbing &amp; Electrical Canberra,0437 025 971,,info@p1plumbingandelectrical.com.au,,,,,-35.20125264, 149.11201459
Patton Plumbing Services,(02) 6281 6605,,pattonsplumbing@hotmail.com,,,,,-35.3216177, 149.0558099
Plumber Now,(02) 6288 9015,,,,,,,-35.3372165, 149.0320978
Plumbworks,0407 290 995,,plumbworksplumbing@bigpond.com,,,,,-35.2183026, 149.0321512
Polished Plumbing,0407 447 102,,,,,,,-35.4275239, 149.1160391
Priority One Plumbing Services,0432 592 861,,info@priorityoneplumbingservices.com.au,,,,,-35.2383536, 149.1538031
Pro-Plumbing,0418 482 529,,,,,,,-35.4158638, 149.0897893
Peter James Marshall,0415 492 707,,marshall.11@optusnet.com.au,,,,,-35.3947897, 149.0708601
Plumbers Canberra,(02) 5104 1555,,,,,,,-35.28078181, 149.13139599
Precise Plumbing &amp; Drainage,0414 710 045,,,,,,,-35.3393888, 149.0526718
Pro-Plumbing ACT Pty Ltd,0418 482 529,,,20 Axon St,ACT,Monash,2904,-35.40808, 149.1017
Rm Plumbing Services,(02) 6288 8739,,,9 Fizelle Pl,ACT,Weston,2611,-35.339011, 149.058054
Southwell Plumbing Service,(02) 6241 1310,,leosouth@bigpond.net.au,,,,,-35.2196725, 149.102516
Turek's Plumbing &amp; Gas,0406 471 717,,,Belconnen,ACT,Scullin,2614,-35.23241, 149.034818
Valetta Projects,0402 120 442,,valettaprojectselissa@hotmail.com,,,,,-35.33378007, 149.14840536
V G Enterprises,0406 966 792,,,,,,,-35.2478766, 149.0589908
Wade Gilmore Plumbing Services,0414 762 957,,wade_gilmore@hotmail.com,,,,,-35.2514048, 149.1247975
Weston creek plumbing,0412 623 444,,bwaugh@grapevine.net.au,,,,,-35.3620925, 149.0565958
Woden Valley Plumbing and Gasfitting,0407 212 565,,info@wodenvalleyplumbing.com.au,,,,,-35.3393888, 149.0526718
Works Plumbing Services,0419 409 527,,,,,,,-35.4184929, 149.0682477
Water Tight Canberra Pty Ltd,(02) 6195 9991,,Info@watertightcanberra.com.au,Level 6 39 London Cct,ACT,Canberra City,2601,-35.279359, 149.126813
William Edmund Pty Ltd,(02) 6295 6846,,,1 Newcastle St,ACT,Kingston,2604,-35.335426, 149.175198
Woden Valley Plumbing &amp; Gasfitting,0407 212 565,,info@wodenvalleyplumbing.com.au,,,,,-35.28078181, 149.13139599
WCE Plumbing,0429 885 571,,admin@wceplumbing.com,,,,,-35.1732139, 149.1086383
WWG Plumbing,0417 496 480,,wwgplumbing@hotmail.com,,,,,-35.3947897, 149.0708601
Your Friend In The Trade,(02) 6294 7022,,,Knoke Ave,ACT,Gordon,2906,-35.465726, 149.085612
A.1 AA All Direct Plumbing,(02) 4628 7279,,,,,,,-34.0677741, 150.8131919
A1 Plumbing Services NSW PTY LTD,,,a1plumbingnsw@hotmail.com,,,,,-33.890626, 151.0223952
AAA Abate Plumbing,(02) 9948 9282,,aplumbing@bigpond.com,13 Kanangra Cres,NSW,Clontarf,2093,-33.79907, 151.252683
AAA Plumbcare,0425 212 461,,,210 Hawkesbury Rd,NSW,Winmalee,2777,-33.681813, 150.593046
A-1-AA-All Direct Plumbing &amp; Drainage,0418 214 953,,,,,,,-33.9460843, 150.837903
A.1.A.A. All Direct Plumbing &amp; Drainage Services,0418 214 953,,,,,,,-33.7521624, 150.6909555
A1 Advanced Drainage Technologies,1800 769 668,,,,,,,
A1 Broadstock Plumbing,0414 463 277,,brockbroadstock@hotmail.com,,,,,-33.9060263, 151.2636302
A1 Competitive Plumbing Services,1800 001 760,,,,,,,
A1 Gavin McManus Plumbing,0418 259 784,,,26 Connaught St,NSW,Narraweena,2099,-33.75681, 151.27109
A 1 Lifeguard Plumbing,0412 540 410,,,11 Gary St,NSW,Castle Hill,2154,-33.74104, 151.00239
A1 Metal Roofing &amp; Plumbing Pty Ltd,0411 346 579,,,,,,,-35.3570199, 150.4739806
A1 Plumbing Solutions,(02) 4965 5209,,,21 Hall St,NSW,Merewether,2291,-32.944025, 151.751961
A1 Plumbing Sydney,0418 212 419,,plumu@hotmail.com,,,,,-33.9023527, 150.8687305
A1 Precision Plumbing,0407 305 335,,,,,,,-33.8135042, 151.1057327
A1 Pronto Plumbing,0418 243 327,,sales@a1prontoplumbing.com.au,369 Windsor Rd,NSW,Vineyard,2765,-33.634776, 150.846741
A1 Sydney Emergency Plumbing (AUST) P/L,0437 088 844,,info@a1sydneyemergencyplumbing.net,,,,,-33.9705158, 151.0800503
A1 Waterproofing,1300 793 220,,,,,,,-33.8504146, 150.9100157
AAAA Anytime On Time Plumbing Services,1300 769 239,,anytimeontime@bigpond.com,,,,,-33.8573038, 150.8914651
A AAAArdvark Plumbing Services,(02) 9724 1471,,,4 Frederick St,NSW,Fairfield,2165,-33.875605, 150.950725
A. AAAbove All Emergency 24Hr Plumbing, Drainage &amp; Hot Water,(02) 9874 0888,,,,,,,-33.7917654, 151.0805711
A. AAAbove All Emergency Plumbing,(02) 9416 9955,,,,,,,-33.7756703, 151.1694182
A.AA Bound A1 Pronto Plumbing,1800 998 048,,,,,,,
A Aacomidate Plumbing &amp; Maintenance Service,(02) 9724 9699,,,83 Grainger Ave,NSW,Mt Pritchard,2170,-33.90032, 150.90632
A. Aacomidate Plumbing &amp; Maintenance Services,(02) 9727 5736,,,59 Lovoni St,NSW,Cabramatta,2166,-33.9015, 150.94294
AAA Merrylands Plumbing,(02) 8820 4398,,,,,,,-33.8078975, 150.971758
A A.A. Mr Hot Water Professional Emergency 24 Hours 7 Days,1800 247 474,,,,,,,-33.8903527, 151.2130297
AA and A To Z Plumbing &amp; Drainage Services,(02) 4943 0066,,,8 Lomandra Pl,NSW,Penrith,2750,-33.7521624, 150.6909555
AAA Plus Plumbing,0419 214 883,,,,,,,-33.3890875, 151.4733282
A Aapt Plumbing Services,(02) 9724 9699,,,4 Frederick St,NSW,Fairfield,2165,-33.875605, 150.950725
A AA Sydney Wide Emergency Plumbing,1800 666 369,,,1 Burnside Gr,NSW,Windsor Downs,2756,-33.667546, 150.81094
AAA Sydney Wide Plumbing,1800 666 369,,,,,,,
AA &amp; A To Z Plumbing &amp; Drainage,(02) 4626 5491,,,,,,,-34.0677741, 150.8131919
AAA Tradesmen,0412 215 522,,,21 Nicholson Pl,NSW,Windsor Downs,2756,-33.669315, 150.804881
A Abafield Plumbing,0416 022 105,,,,,,,-33.4230145, 151.4389669
A1 Mid Coast Gas &amp; Plumbing,0412 655 130,,,,,,,-31.5790091, 152.83351
AAAAA Your 24/7 Emergency Plumbing and Hot Water,0420 102 294,,,,,,,
AA and# A to# Z Plumbing &amp; Drainage Services,(02) 9604 6854,,,,,,,-33.8709273, 150.9555848
AABC Main Plumbing,0421 180 210,,,,,,,-33.9246089, 151.2116798
A About Plumbing,(02) 4739 5147,,,,,,,-33.7672408, 150.6218176
A.A.F.W. Plumbing,1800 247 474,,,13 Wallace St,NSW,Marrickville,2204,-33.91931, 151.14417
AAvago Plumbing,0415 149 334,,,,,,,-34.0364575, 151.0847863
Abbott D J &amp; A M,(02) 6687 8434,,,757 Fernleigh Rd,NSW,Brooklet,2479,-28.74255, 153.49705
Aabracadabra Plumbing,0404 710 574,,,,,,,-33.9335031, 151.1373993
A Ace Hot Water &amp; Drainage,1800 683 908,,,,,,,-33.6180453, 150.8067632
A.A Dial-a-Plumber 24 Hour Emergency Plumbing, Drainage, Gasfitting, Blocked Drain &amp; Hot Water Mobile Repair Service,(02) 9371 6571,,,,,,,-33.8704551, 151.268307
Aall Aabout Plumbing Maintenance Service,(02) 9772 1759,,,17 Ellesmere St,NSW,Panania,2213,-33.945226, 151.002379
AAll About Plumbing Maintenance Services,0419 010 076,,,,,,,-33.9550307, 150.9983426
A.A. Payne Plumbing,(02) 4368 1181,,,,,,,-33.4676824, 151.3811221
A A Plumbing,0418 965 702,,,,,,,-33.2835775, 149.1012702
AA Plumbing Solutions,0420 648 595,,,,,,,-33.8709273, 150.9555848
A. Arrangement Plumbing,1300 304 487,,assetplumbing@optusnet.com.au,95 Kensington Rd,NSW,Summer Hill,2130,-33.887053, 151.1386
A Arrangement Plumbing,1300 304 487,,,,,,,-33.8152373, 151.003125
AAY Plumbing Services pty Ltd,0439 459 874,,info.aayplumbingservices@yahoo.com,,,,,-33.9861229, 150.8912747
ABAC Plumbing Service,1300 304 487,,,,,,,-33.8746051, 151.0940251
A Baker Neil &amp; Craig,0418 444 300,,ncbplumb@gmail.com,35 Calool Crst,NSW,Belrose,2085,-33.731757, 151.208066
Abal Drains Co,1300 304 487,,,,,,,-33.967113, 151.102857
Abax Plumbing,1300 304 487,,,,,,,
Abbotsbury Plumbing Solutions,0404 882 332,,plumbingfax@yahoo.com.au,,,,,-33.869399, 150.8655844
Abbott Peter Plumbing,0412 642 346,,,,,,,
ABCB Plumbing &amp; Drainage,(02) 4399 1111,,abcbplumbing@hotmail.com,,,,,
Abco Plumbing Solutions,0418 906 784,,,,,,,-33.93232381, 151.07448439
A.B.C. Plumbing Service Pty Ltd,(02) 9708 3323,,,181 Banksia Rd,NSW,Greenacre,2190,-33.90628, 151.04121
Abe Duggan Plumbing Service,0424 171 731,,abe.21@hotmail.com,,,,,-33.36651354, 147.99255118
ABG Plumbing Group,0413 276 332,,Benjamin.ABGPlumbing@outlook.com,,,,,-33.9460843, 150.837903
Abide Plumbing,1300 723 445,,,,,,,
AARTS PLUMBING,(02) 4759 1710,,aartsplumbing@gmail.com,PO Box 45,NSW,Lawson,2783,-33.7197519, 150.4297305
Abbotsford Plumbing P/L,(02) 9713 2877,,abbotsfordplumbing@optusnet.com.au,3 Innes St,NSW,Five Dock,2046,-33.86356, 151.12918
Abkev Plumbing,0408 731 547,,,,,,,-32.9818512, 151.6913753
Able2C Plumbing Services,0418 652 695,,tim.larkin@hotmail.com,,,,,
ABS Plumbing Services,0419 416 897,,absplumbing@optusnet.com.au,169 Marked Tree Rd,NSW,Gundaroo,2620,-35.013591, 149.288457
Accomplished Emergency Plumbing,0418 469 503,,,,,,,-31.4307038, 152.9063331
Ace Plumbing &amp; Gasfitting,0402 853 845,,,,,,,-35.3566986, 149.2332258
Able Plumbing,(02) 9826 8011,,,,,,,-33.9315279, 150.896193
Able Plumbing &amp; Hot Water,(02) 9427 0999,,service@ablehotwater.com.au,,,,,-33.8145564, 151.1698948
Able Plumbing Services Pty Ltd,0418 226 832,,,2 Stewart St,NSW,Conjola Park,2539,-35.263439, 150.440515
A Blewy's Plumbing Services,0406 884 759,,blewysplumbingservices@hotmail.com,,,,,-34.0542781, 150.6956331
About Plumbing,0414 268 024,,,,,,,-33.6989068, 150.5640809
About Time Plumbing,(02) 4869 1234,,,45 Robertson Rd,NSW,Moss Vale,2577,-34.54982, 150.38259
About Time Plumbing &amp; Civil Construction,(02) 4869 1234,,abouttimeplumbing@westnet.com.au,,,,,-34.54760365, 150.39176705
Above &amp; Below Plumbing,(02) 9918 2513,,,190 Plateau Rd,NSW,Bilgola Plateau,2107,-33.646746, 151.312261
Abstract Plumbing Services,0404 885 607,,,,,,,-33.9904465, 151.1335762
Abstract Plumbing Services Pty Ltd,(02) 9580 0170,,,15 Baker St,NSW,Oatley,2223,-33.98256, 151.068516
A B &amp; T B Plumbing,(02) 4625 1360,,abtbplumbing7@bigpond.com,2A Hepher Rd,NSW,Campbelltown,2560,-34.057159, 150.808272
A.B. &amp; T.B. Plumbing,(02) 4625 1360,,abtbplumbing7@bigpond.com,2A Heffer,NSW,Campbelltown,2560,-34.0677741, 150.8131919
A Budget Plumber,1800 066 778,,,,,,,
Abudget Plumbing,0475 124 465,,,,,,,-34.5313744, 150.8690305
Abzolute Plumbing,0434 676 222,,abzoluteplumbing@gmail.com,,,,,-34.0677741, 150.8131919
Accredited Plumbing,0411 414 277,,info@accreditedplumbingsouthcoast.com.au,,,,,-35.3570199, 150.4739806
Accurate Plumbing Services Australia,0410 136 580,,,,,,,-32.5611069, 151.1745874
ACD PLUMBING SOLUTIONS,0420 631 172,,,,,,,-33.932205, 151.0515383
Ace Drainage,0411 589 395,,,1 Coronation St,NSW,Mona Vale,2103,-33.687641, 151.305838
Ace Drain Cleaning,0497 989 992,,matthewfinnigan@hotmail.com,27 Cassinia Ct,NSW,Thurgoona,2640,-36.054197, 146.976331
Aceline Plumbing Services,0414 536 982,,,,,,,
Ace Performance Plumbing,(02) 9644 2348,,,,,,,-33.8832003, 151.0015743
A Class Plumbing,(02) 9630 4227,,info@aclassplumbing.com.au,,,,,-33.7682476, 151.0287646
A Class Plumbing Co Pty Ltd,(02) 9683 1233,,,Unit 20/ 2 Richard Cl,NSW,North Rocks,2151,-33.772323, 151.007748
A-Class Plumbing Solutions,0416 627 444,,,22 Elkhorn Pl,NSW,Alfords Point,2234,-33.983614, 151.020766
Acomplished Plumbing,0418 469 503,,,,,,,-31.4307038, 152.9063331
A. Corradini Plumbing,0412 722 330,,tcorro@bigpond.com,76 William James Dr,NSW,Mt Kembla,2526,-34.434041, 150.826207
AC Plumbing and Maintenance,0401 241 730,,anthonyowen74@bigpond.com,94 Gilmour St,NSW,Kelso,2795,-33.410646, 149.600232
Acqua Flow Plumbing,0411 543 033,,acquaflowplumbing@gmail.com,,,,,-33.8573038, 150.8914651
Acro Plumbing,0412 641 754,,,,,,,-33.7733364, 150.9702102
Absolute Services Pty ltd,(02) 9629 9833,,,,,,,
Academy Plumbing,0414 291 623,,steve.academy@bigpond.com,,,,,-33.0420082, 151.610044
Ace Pipe Relining Sydney,0458 010 988,,,Townhouse 13 23 Mckinnon Ave,NSW,Five Dock,2046,-33.862987, 151.131788
Across Plumbing,0419 566 111,,acrossplumbing@gmail.com,Unit 7 11 Billbrooke Crst,NSW,Cameron Park,2285,-32.899036, 151.595239
Active Plumbing,(08) 9965 3044,,geraldton@activeplumbing.net.au,28 Bradford St, WA,Geraldto,6530,-28.760117, 114.634933
Acrow Plumbing Pty Ltd,0412 641 754,,,,,,,-33.7733364, 150.9702102
ACR Plumbing,0433 313 315,,ant@acrplumbing.com.au,,,,,-33.7134525, 151.1471774
ACS Plumbing,0418 997 693,,,,,,,-37.667861, 145.0622519
ACS Plumbing and Sewer Services,(02) 9614 3550,,,,,,,-32.9156773, 151.7845751
Action Plumbing &amp; Backflow Services,0419 504 446,,matt@actionplumbing.com,,,,,-34.0681894, 150.7120632
Activate Plumbing,(02) 4472 6183,,,30 Benandra Forest Pl,NSW,Long Beach,2536,-35.682488, 150.234025
Active Drain Solutions,(02) 4368 4872,,info@activedrains.com.au,,,,,-33.4359294, 151.3849612
Active Fire Services,1300 435 744,,,,,,,-34.4937933, 150.7944772
Activeflow Plumbing,0431 635 745,,,67 Gascoigne St,NSW,Kingswood,2747,-33.752816, 150.714952
Adam Brown Plumbing,(02) 9918 2856,,,33 Ruskin Row,NSW,Avalon Beach,2107,-33.637807, 151.318743
Adams Steve,0411 128 088,,,,,,,-33.2835775, 149.1012702
ADKO Plumbing &amp; Drainage Services,0487 870 733,,bookings@adkoplumbing.com.au,,,,,-33.9650448, 151.0883221
Active Plumbing &amp; Drainage Services,0416 101 022,,,,,,,-34.4146057, 150.8716111
Activ Plumbing Solutions,0490 087 575,,activplumbingsolutions@gmail.com,,,,,
Adam Christofides Plumbing Pty Ltd,0412 671 741,,info@ac-plumbing.com.au,,,,,-34.4937933, 150.7944772
Adam Dwyer Plumbing,0438 259 129,,adamdwyer85@hotmail.com,10 Lett Pl,NSW,Raglan,2795,-33.428939, 149.652656
Adam English Plumbing,(02) 6766 3197,,,,,,,-31.0844815, 150.9375934
Adam john stone plumbing service's,0467 418 776,,,31 Sydney Rd,NSW,Goulburn,2580,-34.747574, 149.747076
Adam J Watson Plumbing,0417 819 119,,adamjwatsonplumbing@bigpond.com,,,,,-34.0861145, 150.7870225
Adam Newling Plumbing Pty Ltd,0412 122 349,,,,,,,-32.9491911, 151.6502254
Adam Quinlan Plumbing,0407 496 012,,,33 Ismay Ave,NSW,Homebush,2140,-33.861151, 151.08389
Adamstown Plumbing Services Pty Ltd,(02) 4952 3352,,adamstownplumbing@gmail.com,28 Bourke St,NSW,Adamstown,2289,-32.936757, 151.722011
Adam Swain Plumbing,0449 704 376,,,,,,,-33.2835775, 149.1012702
ADB,0402 209 150,,,,,,,-33.9314087, 151.2561763
Adco Plumbing Group,0433 442 196,,,,,,,-33.93232381, 151.07448439
A.D.D.A. Plumbing Services,0419 600 664,,,,,,,-33.4186086, 149.5837826
Adept Plumbing And Gas,0401 031 334,,,PO Box 313,NSW,Forestville,2087,-33.7620793, 151.2164704
Adept Plumbing Solutions,0415 746 406,,adeptplumbingsolutions@gmail.com,,,,,-33.7957407, 151.2756889
A D P Plumbing,(02) 4381 1191,,,,,,,-33.49762, 151.420378
Adria Plumbing,0403 547 504,,,2 Playford Tce,NSW,Moorebank,2170,-33.93806, 150.957068
Adsco Plumbing Solutions,0404 774 228,,,Gladstone St,NSW,Concord,2137,-33.86, 151.1
Advance 2000 Plumbing,(02) 9809 0191,,,51 Falconer St,NSW,West Ryde,2114,-33.807604, 151.095755
Advanced Building &amp; Plumbing,0404 947 288,,,,,,,-34.0677741, 150.8131919
Advanced Hydronic Heating,0432 671 566,,,,,,,-33.9125924, 151.1037853
Advanced Leak Detection,1300 884 401,,,,,,,
Advanced Locating Services,0418 259 798,,,,,,,-33.9650448, 151.0883221
Adam's Plumbing &amp; Roofing,(02) 6621 2982,,adamsplumbingandroofing@live.com,128 Brunswick St,NSW,Lismore Heights,2480,-28.798249, 153.292553
ADH Plumbing Pty Ltd,(02) 6862 2696,,adhplumb@westserv.net.au,,,,,-33.1378971, 148.1748497
Advanced Plumbing &amp; Hot Water,(02) 4628 8686,,,,,,,-34.0677741, 150.8131919
Advance Plumbing &amp; Gasfitting Pty Ltd,(02) 8883 0170,,,,,,,-33.71404162, 150.92771406
AEM Plumbing &amp; Property Maintenance,(02) 9728 3143,,,20 Knight St,NSW,Lansvale,2166,-33.893519, 150.966508
Affordable Plumbing Solutions,0417 142 430,,dj80@hotmail.com.au,PO Box 909,NSW,Hornsby,1630,-33.7031604, 151.1004777
Agile Plumbing Services,0418 282 125,,,5 McMahon Ave,NSW,Liverpool,2170,-33.91171, 150.912932
Advance Plumbing Service Pty Ltd,0411 112 520,,advancep@optusnet.com.au,2 Collins St,NSW,North Ryde,2113,-33.793869, 151.127993
Advantage Hot Water &amp; Plumbing,0412 437 363,,,,,,,-33.425079, 151.3422162
Advantage plumbing &amp; Guttering,0403 737 576,,advantagepg@gmail.com,,,,,-33.7289625, 151.1219271
Advantage Plumbing Solutions,0402 466 907,,advplumbing@outlook.com.au,,,,,-33.01130189, 151.68785938
Adventure Plumbing PTY LTD,0448 004 183,,,,,,,-33.6166818, 150.8350533
A. E. Campbell &amp; Son Pty Ltd,0428 272 445,,,,,,,-28.8079553, 153.2796901
AED Plumbing,0490 123 915,,aedplumbing@gmail.com,3 188-198 Gertrude St,NSW,Gosford,2250,-33.417907, 151.345776
Affordable Hot Water,(02) 9957 2886,,,,,,,-33.8316338, 151.2221423
Affordable Hot Water P/L,(02) 9979 8305,,,,,,,-33.67440769, 151.30090368
Affordable Hot Water Pty Ltd,(02) 9972 2114,,,,,,,-33.7623885, 151.2712749
Affordable Plumbing,0430 564 991,,Kody2007@me.com,,,,,-35.0503309, 138.5886341
Affordable Plumbing Aust P/L,1300 723 014,,affordableplumbingaust@gmail.com,,,,,-33.8573038, 150.8914651
A Five Dock Plumbing,(02) 9713 7331,,,,,,,-33.8674861, 151.1300906
AFP Services,0422 501 788,,,,,,,-33.9099902, 151.2229721
Afterdark Plumbing,(02) 4441 1053,,,7 Myrniong Gr,NSW,Berrara,2540,-35.20671, 150.55366
AG Associated,(02) 9817 1894,,,,,,,-33.8324481, 151.1270573
A G Corby Plumbing &amp; Gas,0407 926 673,,alex@agcorbyplumbing.com.au,,,,,-36.3654437, 148.8275351
AGL Thermo Hydraulic services,0414 693 155,,aglthermohydraulics@gmail.com,,,,,-33.9825232, 150.8467001
AGM Plumbing Services,,,agmplumbingservices@gmail.com,,,,,-33.8541009, 150.9865844
A. Golding Plumbing,0409 581 389,,,179 Gipps St,NSW,Dubbo,2830,-32.259697, 148.60861
A &amp; G Professional Plumbing Pty Ltd,0418 248 348,,,7 Ross St,NSW,Brooklyn,2083,-33.54881, 151.213156
AGS Plumbing Pty Ltd,(02) 8850 6133,,,Unit 6/ 6 Anella Ave,NSW,Castle Hill,2154,-33.72491, 150.97898
A &amp; G Stuart Plumbing,(02) 9862 9688,,,,,,,-33.829593, 150.9529029
A&amp;G Stuart Plumbing,(02) 9680 8323,,,,,,,-33.8152373, 151.003125
Affordable Plumbing Aust Pty Ltd,0434 577 267,,affordableplumbingaust@gmail.com,,,,,-33.8769238, 150.8765088
Age Less Plumbing,0427 738 680,,,39 Auburn St,NSW,Goulburn,2580,-34.761602, 149.713442
Ahern's Plumbing Service,0417 676 064,,ahernplumbing1@bigpond.com,59 Atherton Cres,NSW,Wagga Wagga,2650,-35.157143, 147.357503
AH Plumbing &amp; Gas Fitting,0432 355 676,,aaron@aaronsplumbing.com.au,,,,,-33.7149522, 150.3114147
AJR PLUMBING SERVICES,0401 184 830,,,,,,,-34.0409889, 151.1224928
Alan Trevitt Plumbing,(02) 9697 0413,,,,,,,
Alias Plumbing,0416 282 919,,aliasplumbing@gmail.com,,,,,-28.5533664, 153.4996042
AH Plumbing &amp; Maintenance,0459 222 452,,anton@ahplumbing.net.au,,,,,-33.425079, 151.3422162
AIC Plumbing,0407 299 951,,,5 Garru Pl,NSW,Glenfield Park,2650,-35.135756, 147.324591
Aim Local Plumbing &amp; Electrical,1800 768 045,,troy@wsggroup.com.au,Level 1, 1/217 West St,NSW,Umina Beach,2257,-33.521618, 151.322435
AJB Plumbing and Gas,0437 245 905,,ajbplumbandgas@gmail.com,Willow Gr,NSW,Corrimal,2518,-34.369399, 150.89352
AJ Coastal Plumbing,0423 123 823,,,,,,,-33.3626284, 151.4478131
AJ Hart Plumbing,0412 472 427,,,Lot 1 Scenic Dr,NSW,Bermagui,2546,-36.430432, 150.081173
Ajile Plumbing Solutions,0428 495 344,,,,,,,-35.149472, 147.4574055
A J Plumbing &amp; Hot Water Services,0412 376 917,,,,,,,-33.9451294, 150.8877106
AJS Plumbing,0427 261 103,,ajsplumbing@gmail.com,,,,,-36.0445786, 146.9900788
AJ's Plumbing,1300 765 339,,ajsplumbing@optusnet.com.au,Unit 17/ 300 Riley St,NSW,Surry Hills,2010,-33.883768, 151.213728
A &amp; J Wordsworth Plumbing Pty Ltd,(02) 9387 4273,,,17/ 197 Birrell St,NSW,Waverley,2024,-33.89767, 151.2601
A J &amp; W Plumbing Services,(02) 4960 8199,,,,,,,-32.8916357, 151.7287974
Alan Chiswick Pty Ltd,0412 611 116,,,20 Mena St,NSW,North Strathfield,2137,-33.854832, 151.083405
Alan Oxfords Plumbing,(02) 9894 9623,,,,,,,-33.7381037, 151.0718282
Albury Plumbing &amp; Gas,0400 584 384,,,,,,,-36.0807785, 146.9164693
Albury Wodonga Gas Service,(02) 6025 4100,,,,,,,-36.0509521, 146.9328139
Albury Wodonga Plumbing Services,0412 698 741,,awps@bigpond.com,,,,,-36.1878617, 146.9486356
ALCOM Plumbing,0401 888 363,,admin@alcomplumbing.com.au,38 Bristol Cct,NSW,Blacktown,2148,-33.786968, 150.896076
Alex Barr Plumbing Pty Ltd,(02) 4965 3491,,,19 Everton St,NSW,Hamilton East,2303,-32.927752, 151.752798
Alex Johnson Plumbing and Roofing,0401 873 064,,,19 Fremantle Dr,NSW,Woodrising,2284,-32.986181, 151.603276
Alex Martin Plumbing,0427 336 984,,,Wooroowoolgan St,NSW,Casino,2470,-28.871623, 153.038739
Alex Schlack Plumber Drainer Gas Fitter lic.277815c,0447 925 733,,alex.schlack@bigpond.com,,,,,-30.3250572, 149.7829808
A. Line Plumbing,(02) 9773 9989,,,38 Kathleen Parade,NSW,Picnic Point,2213,-33.96737, 151.002058
A. Line Plumbing &amp; Drainage,1300 725 945,,,,,,,-33.9808193, 150.9959633
Alister Hayes Plumbing Service,(02) 9630 2557,,,3 Anne St,NSW,Oatlands,2117,-33.797842, 151.022577
All About Quality Plumbing Services,0412 555 782,,adamvirtu@yahoo.com.au,,,,,-33.2172775, 151.5561623
All Action Plumbing &amp; Gas,0433 478 763,,allactionplumbing@outlook.com.au,,,,,-28.5533664, 153.4996042
All Active Plumbing,0421 639 016,,,,,,,-33.9522629, 151.0321372
Allan Bennett,0437 976 871,,allanmbennett@gmail.com,,,,,-33.6830946, 150.871078
Allan Colquhoun &amp; Sons Pty Ltd,0418 639 336,,iain@colquhounplumbing.com.au,28A Russell St,NSW,Oatley,2223,-33.986297, 151.086525
A&amp;J Plumbing &amp; Roofing Service,0411 550 365,,ajplumbingroofing@gmail.com,,,,,-34.7545432, 149.7178169
Alan Oxfords Plumbing &amp; Electrical,(02) 9894 9623,,alan@alanoxfordsplumbing.com.au,,,,,-33.72510369, 151.00187631
Alfa Plumbing Gas Services,0413 443 678,,info@alfaplumbingas.com.au,,,,,-33.9200192, 150.9241267
Allan Don,0417 049 155,,,57 Murranar Rd,NSW,Towradgi,2518,-34.385479, 150.905125
Allan's Plumbing,0458 770 091,,allansplumbing@rocketmail.com,Area 51 Putty Valley Rd,NSW,Putty,2330,-32.96, 150.67
All Clear Plumbing,(02) 9726 6690,,,22 Jacaranda Dr,NSW,Georges Hall,2198,-33.90505, 150.98441
All Day Plumbing &amp; Maintenance,0405 030 479,,alldayplumbing@live.com.au,,,,,-33.76118677, 150.98340419
All Hours Plumbing &amp; Maintenance,0401 767 810,,jasondennisplumbing@icloud.com,,,,,-31.4307038, 152.9063331
Allan's Plumbing &amp; Drainage Services,0408 213 877,,,,,,,-34.03354, 150.8755
All Areas Plumbing and Servicing,0427 719 254,,accounts@allareasplumbing.com.au,242 Eatonsville Rd,NSW,Waterview Heights,2460,-29.658728, 152.865445
All Areas Plumbing &amp; Maintenance,(02) 4947 0695,,,33 Deane St,,NSW,Belmont,2280,-33.02775, 151.66379
All Aspects Group,0422 998 119,,contact@allaspectsgroup.com.au,,,,,-33.7615158, 150.9309433
All Aspects of Plumbing Pty Ltd,(02) 4681 0883,,admin@allaspectsofplumbing.com.au,,,,,-34.2020042, 150.5671767
All-Aus Plumbing &amp; Roofing,0408 666 078,,info@allausplumbingroofing.com,1 Hely Ave,NSW,Fennell Bay,2283,-32.992576, 151.601258
All Australian Plumbing,0406 022 729,,allaustralianplumbing@outlook.com,,,,,-33.9225153, 151.2041012
All Cisterns Go Plumbing Services,(02) 8901 0555,,,,,,,-33.7394441, 151.2098162
All Coast Plumbing And Gas,0410 426 932,,allcoastplumbingandgas@gmail.com,37 Kuburra Rd,NSW,Erina,2250,-33.431974, 151.394837
All Day/Night Drains,0414 849 366,,,,,,,-33.79526988, 151.12657197
All Day/Night Plumbing,(02) 9888 9940,,,,,,,-33.7960783, 151.1830913
All Day/ Night Plumbing,(02) 9888 9940,,,,,,,-33.8339832, 151.1446387
All Direct Plumbing &amp; Drainage,(02) 4736 7497,,,,,,,-33.7521624, 150.6909555
All Direct Plumbing &amp; Drainage Services,(02) 9724 1009,,,,,,,-33.8709273, 150.9555848
All Districts Plumbing (NSW),0427 757 515,,alldistrictsplumbing@gmail.com,,,,,-33.3542449, 149.9857245
ALLEN, Terry,(02) 4886 4346,,,,,,,-34.6293398, 150.53117
All Flow Plumbing,0449 771 549,,,4 Hereford Street,NSW,Busby,2168,-33.915357, 150.883898
All-Hours Plumbing Services,(02) 9556 2428,,,,,,,-33.9602499, 151.1547013
All Hrs Water Works Plumbing &amp; Maintenance,0418 634 813,,,,,,,-32.9422183, 151.7514348
Alliance Plumbing Maintenance Services,0450 743 150,,allianceplumbing@hotmail.com,,,,,-33.9904465, 151.1335762
Allied Plumbing Group,0404 259 457,,aplumbinggroup@gmail.com,,,,,-33.90604117, 151.05814101
All Mountains Plumbing,0409 461 353,,joe@allmountainsplumbing.com.au,,,,,-33.7350332, 150.4793782
All Needs Plumbing,1300 110 230,,daniel@allneedsplumbing.com.au,7 Payten St,NSW,Kogarah Bay,2217,-33.980227, 151.121706
All Out Plumbing,0414 485 355,,alloutplumbing@live.com.au,,,,,-32.0563339, 152.5077019
Allpipe Plumbing,(02) 9818 5820,,,Unit 4/ 474 Darling St,NSW,Balmain,2041,-33.85797, 151.17257
All Day Plumbing,0405 030 479,,info@alldayplumbing.com.au,45 Powers Rd,NSW,Seven Hills,2147,-33.776782, 150.954057
All Flushed Out Plumbing,0420 315 964,,allflushedout1@gmail.com,20 Darley Rd,NSW,Umina Beach,2257,-33.512052, 151.316051
All Pipes Plumbing,0421 225 963,,,,,,,-33.967113, 151.102857
All Plumbing Solutions,0401 004 717,,apsallplumbing@optusnet.com,,,,,-32.9068234, 151.7272977
Allsorts Plumbing,0402 281 605,,kris@allsortsplumbing.org,41 Howard St,NSW,New Berrima,2577,-34.500841, 150.33219
All Time Plumbing,(02) 9369 1010,,,3A Campbell St,NSW,Bondi Beach,2026,-33.895093, 151.273606
Almeida Charles,(02) 6674 2127,,,,,,,-28.2395716, 153.5503916
All Plumb Plumbing &amp; Excavation,0428 565 005,,,156 Bonville Station Rd,NSW,Bonville,2441,-30.376234, 153.05004
Allplus Plumbing &amp; Gas,0418 251 401,,jmo02@bigpond.com,19 Bourkelands Dr,NSW,Bourkelands,2650,-35.153882, 147.349565
All Prestige Plumbing,0410 300 937,,,,,,,-33.91797644, 151.03523368
All Pro Plumbing,0420 202 853,,info@allproplumbing.net.au,,,,,-33.890626, 151.0223952
AllPro Plumbing &amp; Excavation,0493 224 392,,,7 Cundle Rd,NSW,Lansdowne,2430,-31.782481, 152.53472
All Purpose Plumbing &amp; Drainage Contractors Pty Ltd,(02) 9629 6022,,,77/ 159 Ridgecrop Dr,NSW,Castle Hill,2154,-33.713, 150.9942
All Rapid Plumbing Repairs,(02) 4946 6220,,,,,,,-32.9735346, 151.6438138
All Rapid Plumbing Repairs Pty Ltd,(02) 4943 6654,,,,,,,-33.10749355, 151.64325157
All Spec Plumbing,0434 546 187,,akin@allspecplumbing.com.au,,,,,-33.9375033, 150.84781806
All Stars Plumbing,0430 308 470,,badge_nath@hotmail.com,,,,,-34.5655198, 150.8555854
All Styles Plumbing Services Pty.Ltd.,(02) 9605 2248,,alexallstyles@hotmail.com,,,,,-33.9841666, 150.8704403
All sydney all plumbing,0404 033 191,,Allsydneyallplumbing@gmail.com,,,,,
All Sydney Plumbing,0413 922 920,,allsydneyplumbing@hotmail.com,,,,,-33.8367028, 150.9907775
All Sydney Sidelines Pty Ltd,0408 612 184,,,1/ 133 Russell Ave,NSW,Dolls Point,2219,-33.99439, 151.14105
All Systems Flow Plumbing,0424 193 569,,dave@allsystemsflow.com.au,,,,,-33.6944876, 151.2779546
All Time Plumbing Drainage &amp; Gasfitting Services P/L,(02) 6299 0211,,alltimeplumbing@bigpond.com,,,,,-35.3566986, 149.2332258
All Water Gas &amp; Solar,0419 227 029,,,Unit 4 26 Tathra St,NSW,Gosford West,2250,-33.41651, 151.31757
All Western District Plumbing Pty Ltd,(02) 9723 2444,,,25A Eton St,NSW,Smithfield,2164,-33.8582, 150.94871
Allworks Plumbing,0413 663 551,,plumbing@allworksgroup.com.au,153 Homestead Rd,NSW,Orchard Hills,2748,-33.789354, 150.720995
Allworx Plumbing Drainage &amp; Gasfitting Pty Ltd,0418 211 859,,allworxplumbing@gmail.com,,,,,-33.5964076, 150.7505282
Alpha 1 Plumbing,0451 471 955,,david.sutton892@gmail.com,,,,,-33.7394441, 151.2098162
A &amp; L Plumbing,0412 230 563,,,31 O'Sullivan Ave,NSW,Maroubra,2035,-33.945284, 151.235577
Al's 7 Day Plumbing Service,0407 825 802,,,,,,,-33.70107847, 150.99737831
Al's Budget Plumbing,0409 033 463,,,,,,,-33.4978439, 151.3483738
Al's Plumbing,0414 974 365,,allanandange@bigpond.com,,,,,-33.2269948, 151.5030083
Al's Plumbing &amp; Gasfitting,0402 033 945,,,,,,,-33.9200192, 150.9241267
Alstonville Plumbing &amp; Gasfitting,(02) 6687 8259,,info@alstonvilleplumbing.com.au,,,,,-28.8101054, 153.4854179
All Shores Plumbing,0416 799 881,,,,,,,-33.7960783, 151.1830913
All Systems Plumbing,0418 667 050,,accounts@allsystemsplumbingwagga.com.au,68 Stirling Wagga Wagga 2650,NSW,Wagga Wagga,2650,-35.117494, 147.35896
Allwright Plumbing &amp; Hot Water,0415 761 591,,s_wright@unwired.com.au,,,,,-33.8047248, 150.8036265
Al's Upper Mountains Plumbing,0437 505 893,,al@aumplumbing.com.au,,,,,-33.7092736, 150.3758238
Alternative Plumbing,0416 330 454,,,,,,,-33.75554819, 151.15338699
am2am sydneywide plumbing services,0416 057 106,,am2amsydneywideplumbing@gmail.com,35 Hugh St,NSW,Belmore,2192,-33.909054, 151.078478
AMC Plumbing Sydney.,0407 905 663,,,78 Nicholson Pde,NSW,Cronulla,2230,-34.06305, 151.149015
Amy Johnson Plumbing,0400 603 050,,alj1987@hotmail.com,Kurrajong St,NSW,Dorrigo,2453,-30.339886, 152.710065
Altona Plumbing,(02) 9452 2305,,,15 Altona Ave,NSW,Forestville,2087,-33.75414, 151.2192
Altona Plumbing Services,0418 471 722,,,15 Altona Ave,NSW,Forestville,2087,-33.75414, 151.2192
Altus Plumbing,0421 494 100,,info@altusplumbing.com.au,,,,,-33.95292367, 151.14154648
Alukea Plumbing,0409 441 255,,alukea.plumbing@bigpond.com,139 Booker Bay Rd,NSW,Booker Bay,2257,-33.513354, 151.348557
Always Hot Water,0418 257 782,,,,,,,-33.9194947, 150.9533845
Always Plumbing,0418 203 314,,,,,,,-34.0537697, 151.033446
am2pm plumbing &amp; civils P/L,0450 608 525,,am2pmplumbingservices@hotmail.com,,,,,-33.9468224, 150.9007762
AM2PM Plumbing Services,0450 608 525,,,,,,,-33.9518679, 151.0151986
AM &amp; AR Fergusson Plumbing Service,0409 877 134,,rfergusson@bigpond.com,128 Ferguson St,NSW,Glen Innes,2370,-29.73316, 151.72373
Amaxx Plumbing And Gasfitting,0427 344 474,,info@amaxxplumbing.com.au,,,,,-32.1983799, 149.415709
AMAZING PLUMBING,0400 630 570,,kosta.gavalas@bigpond.com,6 72 St Georges Cres,NSW,Drummoyne,2047,-33.849606, 151.158567
Ambassador Metro Plumbing Services,0431 345 670,,,,,,,-33.8794519, 151.2177768
Ambrose Wayne Plumber,0418 696 788,,,1 Alleena St,NSW,West Wyalong,2671,-33.927213, 147.213081
Ambrose Wayne Plumbing,0418 696 788,,,1 Alleena St,NSW,West Wyalong,2671,-33.927213, 147.213081
A. M. &amp; D. Galea Plumbers,0427 482 763,,,,,,,-34.7545432, 149.7178169
Ammoun 24hr Plumbing Services,0404 221 425,,,16 Antwerp,NSW,Auburn,2144,-33.865679, 151.021265
AMOS SERVICES PTY LTD,0481 380 411,,,65 Chiswick Rd,NSW,Greenacre,2190,-33.903437, 151.051357
a &amp; m plumbing solutions,0412 300 687,,andrewtuckey8@gmail.com,,,,,-33.93232381, 151.07448439
A.M.P.M Plumb-Fix Services,0419 259 783,,markstrover@gmail.com,,,,,-34.0817983, 151.0041353
A Murray &amp; Sons,(02) 6947 1973,,admin@amurray.com.au,Cnr Vyner and Dalhunty Sts,NSW,Tumut,2720,-35.296724, 148.212059
Anable Plumbing and Gas,0421 742 699,,anableplumbing@gmail.com,,,,,-34.7545432, 149.7178169
Anable Plumbing &amp; Gas Fitting,0421 742 699,,,,,,,-34.7545432, 149.7178169
Anderson Plumbing Pty Ltd,(02) 9314 7975,,,30 Milford St,NSW,Randwick,2031,-33.915315, 151.244162
Ando's Plumbing,0478 050 262,,andosplumbing@hotmail.com,,,,,-34.4913577, 150.7811624
Andrew Clarke Plumbing,(02) 6567 7594,,budandjenny@bigpond.com,5 Mowong Cl,NSW,Hat Head,2440,-31.06011, 153.054484
Andrew Cross Plumbing,0404 444 400,,,102 Woorarra Ave,NSW,North Narrabeen,2101,-33.70684, 151.28769
Andrew Gould Plumbing,0417 775 994,,,null .,NSW,Broken Hill,2880,-31.9558883, 141.4653416
Andrew Keller Plumbing &amp; Gas Service Pty Ltd,0418 662 784,,kellergasplumb@gmail.com,,,,,-28.8684488, 153.5600237
ALX Plumbing Services,0437 672 950,,alxplumbing@outlook.com,124 Theresa St,NSW,South Kempsey,2440,-31.088306, 152.810739
AMC Plumbing Service,0438 404 485,,amcplumber@yahoo.com.au,,,,,-36.2182385, 150.1323002
A Murray &amp; Sons (Newcastle) Pty Ltd,(02) 4948 0500,,newcastle@amurray.com.au,32 Groves Rd,NSW,Bennetts Green,2290,-32.996696, 151.691325
Andrew Muddle Plumbing,(02) 6742 6990,,andrew@muddleplumbing.com.au,17 Robert Gordon Rd,NSW,Gunnedah,2380,-31.012903, 150.211423
Anglia Plumbing Services,0412 945 131,,,14 Claverdon Ave,NSW,Picnic Point,2213,-33.97231, 151.01008
Anthony O'Brien Plumbing,0427 110 371,,soccer@internode.on.net,6 Cullen St,NSW,Crookwell,2583,-34.470212, 149.46892
AOK Plumbing &amp; Gas,0425 240 018,,aokplumbing@hotmail.com.au,,,,,-34.4583808, 150.8182346
Andrew Pearce Plumbing Services,(02) 9745 4119,,,11 Wynnstay Ave,NSW,Enfield,2136,-33.890991, 151.093903
Andrew Rolton Plumbing,0427 872 845,,,154 Knox St,NSW,Broken Hill,2880,-31.985861, 141.468975
Andrew Sampson Advanced Plumbing,0488 125 786,,,7 Sturdee St,NSW,New Lambton,2305,-32.925983, 151.721049
Andrew Vanny Plumbing Services &amp; Bathroom Renovations Pty Ltd,(02) 9477 3663,,info@andrewvannyplumbing.com.au,87 Parklands Rd,NSW,Mt Colah,2079,-33.663529, 151.112283
Andrew Venables Plumbing,(02) 4368 3959,,venables5870@yahoo.com,10 Mortons Cl,NSW,Kincumber,2251,-33.463657, 151.396576
Andrew Webb Plumbing,0418 733 331,,andrewwebbplumbing@live.com.au,2235 Glenwood Cassilis Rd,NSW,Mudgee,2850,-32.5904424, 149.5886879
Andy O'Brien Plumbing &amp; Construction,0419 478 179,,andyob74@bigpond.com,12 Brownes Rd,NSW,Salt Ash,2318,-32.767564, 151.954611
Andy The Plumber,0400 949 684,,andrewosborne8@bigpond.com,,,,,-33.2432859, 151.5050751
Angourie Plumbing &amp; Gas,0409 841 471,,angourieplumbing@gmail.com,11 Claude,NSW,Yamba,2464,-29.438415, 153.356294
Angus Plumbing Services Pty Ltd,0430 019 498,,angusplumbingservices@bigpond.com.au,23 Walsh Cl,NSW,Illawong,2234,-34.005572, 151.032626
Anleece Plumbing Services Pty Ltd,0414 233 699,,info@anleece.com.au,6 Marriott St,NSW,South West Rocks,2431,-30.891789, 153.041383
A Nosworthy,0428 492 046,,,,,,,-34.7188391, 150.0856803
ANP GROUP SERVICES NSW,0488 456 808,,info@anpgroupservicesnsw.com.au,,,,,-33.9271264, 150.857885
Ansa Plumbing Services Pty Ltd,0412 241 412,,,8 Ballina St,NSW,Greystanes,2145,-33.816671, 150.935859
Anthony Cole,0448 800 450,,,,,,,-34.4767601, 150.4181874
Anthony Duff,(02) 6550 6493,,,250 Callaghans Creek Rd,NSW,Bundook,2422,-31.884191, 152.132921
Anthony Yazbek,0411 127 552,,,,,,,-33.8830488, 151.1144199
Anton's Enterprises Pty Ltd,0411 578 692,,,64 Morehead Ave,NSW,Mt Druitt,2770,-33.75767, 150.825894
Antoun Plumbing Pty. Ltd,0418 230 204,,antounplumbing@gmail.com,374A Galston Rd,NSW,Galston,2159,-33.65257, 151.04409
A.N.U. Plumbing Pty Ltd,0417 239 456,,,65 Becky Ave,NSW,North Rocks,2151,-33.779264, 151.024805
Anything Plumbing Services,0423 619 994,,anythingplumbing@me.com,,,,,-33.2835775, 149.1012702
Anytime Local Plumbing,0407 070 106,,anytimelocalplumbing@gmail.com,,,,,-33.7712221, 150.8446712
Anytime Plumbing,(02) 4257 1038,,,,,,,-34.58002727, 150.77438813
Any Time Plumbing Services,0435 353 507,,anytimeplumbingservices@hotmail.com,,,,,-33.932205, 151.0515383
A One Lovett Plumbing,(02) 4397 4111,,,,,,,-33.2680441, 151.5537945
Aoun Plumbing Pty Ltd,(02) 9683 7080,,,3 Gibbons St,NSW,Oatlands,2117,-33.78899, 151.03326
Apap's Plumbing,0416 157 021,,apapsplumbing@gmail.com,,,,,-33.7467751, 150.8999612
APC Plumbing,(02) 4739 0125,,,,,,,-33.7672408, 150.6218176
APD Plumbing,(02) 9878 2743,,,,,,,-33.79526988, 151.12657197
Angels Beach Plumbing,0423 279 193,,angelsbeachplumbing@outlook.com,,,,,-28.8595983, 153.591229
Anthony Martin Plumbing &amp; Gasfitting,0419 696 922,,brikaty@hotmail.com,101 Litchfield Cresent,NSW,Long Beach,2536,-35.6978118, 150.2351367
Any Type Plumbing Services,0418 285 326,,,,,,,-33.70746239, 150.96286213
Apex Plumbing Solutions,0412 395 426,,,,,,,-33.864687, 151.0436318
A &amp; P Lochrin Plumbing,0418 687 587,,plochrin@bigpond.net.au,65 Turrell St,NSW,Wallsend,2287,-32.898952, 151.662743
Aquabend,0409 925 472,,,210 Dandaraga Rd,NSW,Mirrabooka,2264,-33.116525, 151.558738
Aquajak Plumbing,0415 171 702,,,,,,,-33.7335412, 151.1277681
AQUAVIEW PLUMBING,0434 080 355,,,10 Cobham St,NSW,Yanderra,2574,-34.321343, 150.573919
A Plumber In Yamba,0417 755 689,,janbramwell@bigpond.com,75 Sullivans Rd,NSW,Yamba,2464,-29.44562, 153.3389
APM Plumbing &amp; Painting,0416 148 100,,,,,,,-33.9946092, 151.1464447
APM Trades Group,0416 148 100,,apmgroup@tpg.com.au,,,,,-33.9522629, 151.0321372
Applied Plumbing Solutions,0408 962 991,,,,,,,-33.8414155, 150.8477189
A &amp; P Plumbing Pty Ltd,(02) 4920 8184,,office@aandpplumbing.com.au,U 3 4 Metro Ct,NSW,Gateshead,2290,-32.98694, 151.6952
A P Roberts Plumbing,0492 877 485,,,,,,,-33.9297339, 151.1951449
APT Plumbing Services,(02) 9727 5736,,,4 Federick St,NSW,Fairfield,2165,-33.87561, 150.95073
Aqua Blue Plumbing Services,0421 325 323,,admin@aquablueplumbingservices.com.au,,,,,-30.3762702, 153.0358008
AquaBlu Plumbing,0411 425 554,,,23 Ismay Ave,NSW,Homebush,2140,-33.860676, 151.083548
Aquaculture Plumbing,(02) 9792 5442,,,,,,,-33.9522629, 151.0321372
Aquaculture Plumbing - Emergency Plumber Service,0438 206 255,,aquacultureplumbing@gmail.com,,,,,-33.9522629, 151.0321372
Aquafix Plumbing Services Pty Ltd,0428 836 479,,info@aquafix.com.au,,,,,-34.54760365, 150.39176705
AquaFlush Plumbing,(02) 9705 7806,,info@aquaflush.com.au,33 Tavistock St,NSW,Croydon Park,2133,-33.897639, 151.092753
AquaFlush Professional Plumbing Services,(02) 9705 7806,,,10/28 Ricketty St, Mascot Nsw 2020,NSW,Mascot,2020,-33.921133, 151.180558
Aqua Force Blocked Drains &amp; Plumbing,0418 130 790,,,,,,,-36.4150169, 148.6111175
Aqualine Plumbing and Drainage Pty Ltd,0450 921 891,,mitch@aqualineplumbing.com.co,,,,,-35.070043, 150.6758482
Aqua Master Plumbers Pty Ltd,0407 415 198,,,268 Pebbly Hill Rd,NSW,Cattai,2756,-33.564171, 150.914345
Aquamat Plumbing,0414 687 749,,,7 Stuart Crst,NSW,Drummoyne,2047,-33.84923, 151.15072
Aqua Plumb,0418 274 986,,,,,,,-32.882661, 151.6573899
Aqua plumbers australia,0424 354 330,,,,,,,-33.748991, 150.8245238
Aqua-Pro Plumbing Services,0417 252 159,,adrian@applumbing.com.au,,,,,-33.8821426, 150.6916777
Aquasan Water Management Systems,(02) 4956 5471,,,15 Aruma Pl,NSW,Cardiff,2285,-32.940401, 151.639261
Aquastar Plumbing Services,0429 991 693,,info@aquastarplumbing.com.au,,,,,-34.0409889, 151.1224928
Aquavision  Plumbing Australia,0433 176 263,,,,,,,-35.0920642, 150.5647506
Aquaworx Plumbing &amp; Drainage Services,0423 038 331,,,,,,,-33.8953956, 151.1081853
A QuickFreeze,(02) 9973 3872,,,,,,,-33.63716, 151.33536
Aquifer Plumbing,0423 223 319,,,45 Palace St,NSW,Petersham,2049,-33.892109, 151.154616
A Rapid Plumb Sydney Plumber,,,rapid.plumb@gmail.com,,,,,-33.8487374, 151.0676411
ARB Plumbing Drainage &amp; Gas Pty Ltd,0421 868 961,,info@arbgroup.com.au,,,,,-33.63182273, 150.96750132
ARCO Plumbing Services,0423 695 245,,rhys@arcoplumbingservices.com,,,,,-34.2369742, 150.6955036
A.R.G. Plumbing,0428 294 383,,guy.a.meekin@gmail.com,51 Hughes St,NSW,Bathurst,2795,-33.4053, 149.61485
A.P.T Plumbing Services,(02) 9727 5736,,aptplumbing@iprimus.com.au,4 Frederick St,NSW,Fairfield,2165,-33.875605, 150.950725
Aquajack Pty Ltd,(02) 6582 0434,,aquacath@bigpond.com,PO Box 9068,NSW,Port Macquarie,2444,-31.4307038, 152.9063331
Aquatex Plumbing Services,(02) 9062 3210,,,26 Barkl Ave,NSW,Padstow,2211,-33.955847, 151.026939
Argus Hydraulic Services,0405 234 020,,,Riverview Rd,NSW,Earlwood,2206,-33.919589, 151.135518
Ark Plumbing,0402 486 027,,,90 Albany St,NSW,Point Frederick,2250,-33.44219, 151.34297
A R Wallace,(02) 4257 6662,,,Calderwood Rd,NSW,Calderwood,2527,-34.554206, 150.73304
ASH STAT Plumbing,0434 089 586,,,9 Maunder St,NSW,Moonbi,2353,-31.021173, 151.071611
Asset Plumbing Services,(02) 9763 1177,,,,,,,-33.85628, 151.1030725
Armidale Plumbing,(02) 6772 7866,,armidaleplumbing@yahoo.com.au,251 Dumaresq St,NSW,Armidale,2350,-30.507762, 151.653473
Armstrong, C &amp; R Plumbing Pty Ltd,0439 822 132,,,19 Murringo St,NSW,Young,2594,-34.318841, 148.296784
Armstrong D G Plumbing Services,0418 650 669,,dgarmstrongplumbing@bigpond.com,5 Bonanza St,NSW,Orange,2800,-33.26292, 149.10276
Armstrong's Plumbing,0400 080 563,,wade@armstrongsplumbing.com.au,,,,,-32.9020155, 151.6695469
arnotts plumbing,0466 947 813,,,11 Cruickshank St,NSW,Bellbird Heights,2325,-32.848769, 151.328208
A &amp; R Plumbing,(02) 4367 0411,,,167 Hillside Rd,NSW,Avoca Beach,2251,-33.468941, 151.423324
A &amp; R Plumbing Solutions,0404 001 220,,,,,,,-33.91063, 151.15646
A.R.T.C. Plumbing,(02) 9874 6795,,artcplumbing@optusnet.com.au,,,,,-33.8041877, 151.0336451
ASAPlumbing Service,0421 816 612,,asaplumbingservice@hotmail.com,810 Kurrajong Rd,NSW,Kurrajong East,2758,-33.518934, 150.770057
A.S.A.P. Plumbing &amp; Electrical,1800 654 418,,,,,,,-33.808859, 151.1847951
Ascend Services Pty Ltd,(02) 9606 2207,,sales@ascendservices.com.au,,,,,
Ashbury Plumbing,0401 524 269,,,,,,,-33.8981802, 151.1209045
Ashcroft Enterprises,0404 070 923,,david@ashcroftenterprises.com.au,,,,,-34.0727047, 150.8418386
Ashcroft Plumbing Wagga Pty Ltd,0408 693 200,,troyashcroft@exemail.com.au,,,,,-35.1147668, 147.3696159
Ashfield Plumbing Services,(02) 9153 0624,,lalisecolux@optusnet.com.au,25 Robyn St,NSW,Peakhurst,2210,-33.976168, 151.052718
A Smith Plumbing Service,0404 049 480,,a.smithplumbing@hotmail.com,18 Lansdowne Ave,NSW,Lake Albert,2650,-35.160002, 147.367049
ASPIRE TRADE SERVICES PTY LTD,0432 111 751,,,323 Hume Hwy,NSW,Bankstown,2200,-33.90724, 151.034281
A S Plumbing,0410 624 171,,,,,,,-33.7862818, 150.9669215
As Quick As A Flash Plumbing Services,(02) 9792 1707,,,,,,,-33.94601859, 151.05243454
Assasin Jetters,(02) 9620 9009,,info@assassinjetters.com.au,,,,,
Asset Pipe Services,0420 307 050,,glenn@assetpipeservices.com.au,,,,,-34.0466332, 150.7625852
Asset Plumbing Solutions,,,,36 Loftus St,NSW,Riverstone,2765,-33.66589, 150.859488
Assett Plumbing,1300 304 487,,assetplumbing@optusnet.com.au,PO Box 487,NSW,Parramatta,2124,-33.8152373, 151.003125
Associated Plumbing,(02) 9873 2404,,lynne.ross@ihug.com.au,10 Trigg Ave,NSW,Carlingford,2118,-33.775503, 151.047434
Astill Robert,(02) 4256 4208,,,36 Koona St,NSW,Albion Park Rail,2527,-34.56062, 150.79943
Astound Plumbing Services,0417 692 156,,,,,,,-34.0158719, 151.0127218
A Tai Irwin Pty Ltd,1800 065 695,,,,,,,
Atak Plumbing,0400 871 744,,info@atakplumbing.com.au,,,,,-34.4937933, 150.7944772
A Team Plumbing Services,(02) 9476 6550,,ateam@ateamplumbing.com.au,,,,,-33.7031604, 151.1004777
Artisan Plumbing,0418 280 781,,,,,,,-33.8294285, 151.2441266
ASHMOR Plumbing Pty Ltd,(02) 9672 4555,,,,,,,-33.7694644, 150.9084932
Asset Plumbing Pty Ltd,(02) 4580 9890,,,251 Pitt Town Bottoms Rd,NSW,Pitt Town Bottoms,2756,-33.589178, 150.839262
Atherden Plumbing,0421 745 360,,atherdenplumbing@hotmail.com,10 Coachwood Dr,NSW,Ourimbah,2258,-33.37344, 151.38061
Atherton Plumbing and Gas services,0411 085 468,,athertonplumbing1@gmail.com,,,,,-33.3890875, 151.4733282
ATN Plumbing Solutions,0426 268 629,,ATNplumbsolutions@outlook.com,,,,,-34.4241792, 150.8935489
A to Z Plumbing &amp; Drainage Services Pty Ltd,0480 023 046,,azplumb@bigpond.com,,,,,
Atts Plumbing Pty Ltd,0416 209 370,,,11 Scott St,NSW,Mortdale,2223,-33.965444, 151.072429
A Thompson Plumbing Services,0447 281 830,,,13 Magnolia Ave,NSW,Kalkite,2627,-36.339361, 148.638389
A Tiplady Plumbing,0419 403 029,,atipladyplumbing@bigpond.com,,,,,-33.9210087, 150.8305421
Atkins Plumbing &amp; Gas Pty Ltd,0409 879 009,,chris@atkinsplumbing.com.au,10 Arran Cct,NSW,Largs,2320,-32.689578, 151.607299
Atlantic Plumbing Services,(02) 9966 9690,,admin@atlanticplumbing.com.au,3/ 89 Whiting St,NSW,Artarmon,2064,-33.81657, 151.18002
Atlantis Plumbing,1800 240 140,,,,,,,
Atlas Plumbing Pty Ltd,0418 222 360,,,12 Beattie Ave,NSW,Denistone East,2112,-33.799945, 151.101312
A.T. Marchant &amp; Co Plumbing,(02) 6651 7260,,,,,,,-30.2963481, 153.1156869
A to Z Plumbing &amp;amp Drainage Services Pty Ltd,0418 224 182,,,,,,,-33.87276349, 151.2053446
A to Z Plumbing &amp; Drainage Services,0480 023 046,,azplumb@bigpond.com,,,,,-33.87276349, 151.2053446
A To Z Plumbing &amp; Drainage Services,0418 224 182,,azplumb@bigpond.com,PO Box 531,NSW,Brighton Le Sands,2216,-33.9602499, 151.1547013
At Your Service Plumbing,0450 302 441,,reid@atyourserviceplumbing.com.au,,,,,-33.7788932, 151.2845453
Ausflow Plumbing Services,0417 172 000,,info@ausflowplumbingservices.com.au,,,,,
A.T. Maxted Plumbing,0422 764 897,,alan.maxted@bigpond.com,,,,,-34.8325242, 150.5411561
A &amp; T Pye Plumbing,(02) 4454 0567,,,35 Matron Porter Dr,NSW,Narrawallee,2539,-35.308411, 150.471516
Auspipe Plumbing Services,(02) 9979 4558,,,12 Melaleuca St,NSW,Newport,2106,-33.661093, 151.321818
Ausport Plumbing,0418 265 524,,,,,,,-33.9118702, 151.1196356
Auspro Plumbing Services,0432 013 673,,ausproplumbing@yahoo.com.au,,,,,-33.7839076, 151.2672573
Auss Boring Pty Ltd,(02) 4579 8919,,,PO Box 1694,NSW,Windsor South,2756,-33.6180453, 150.8067632
Aussie Mac Plumbing,0432 600 459,,jaab@aussiemacplumbing.com,334 Green Pigeon Rd,NSW,Green Pigeon,2474,-28.518331, 153.040393
Austar Plumbing Services,(02) 9519 8047,,info@austarplumbing.com.au,,,,,-33.9650448, 151.0883221
Australian Facilities Group,1300 782 387,,info@ausfg.com,Unit 2 2 Juindalee Pl,NSW,Riverwood,2210,-33.941631, 151.05887
Australian Hot Water,(02) 4625 0094,,macarthur@australianhotwater.com.au,11/ 7 Hollylea Rd,NSW,Leumeah,2560,-34.051929, 150.82574
Australian Licensed Plumbers,0429 399 888,,australianlicensedplumbers@gmail.com,,,,,-34.8746078, 150.6027656
Australia Plumbing,1300 667 678,,,,,,,-34.0677741, 150.8131919
Award Winning Plumbing Pty Ltd,0439 383 918,,awplumbing@optusnet.com.au,,,,,-33.7459726, 150.6124283
AWP All Ways Plumbing Pty Ltd,0407 267 592,,dan@allwaysplumbing.com.au,,,,,-33.4978439, 151.3483738
Australian Maintenance Plumbing Service,(02) 4954 0197,,,167 Hillside Rd,NSW,Avoca Beach,2251,-33.468941, 151.423323
Australian Maintenance Plumbing Services,(02) 4367 0011,,,,,,,-33.4652738, 151.4339404
Australian Plumbing Brigade,0426 141 111,,,,,,,-33.94621078, 151.06933439
Aus Trax Plumbing,0403 716 058,,austraxplumbing@gmail.com,,,,,-30.8853149, 153.040306
Avalon Beach Plumbing,0422 297 355,,,,,,,-33.63716, 151.33536
Avoca Beach Five Star Plumbing Pty Ltd (Trading as  J &amp; W McCabe Plumbing),0415 435 434,,jwmccabeplumbing@bigpond.com,PO Box 232,NSW,Avoca Beach,2251,-33.4652738, 151.4339404
Avp Services Pty Ltd,(02) 8850 0713,,,,,,,-33.72510369, 151.00187631
A W Edwards Pty Ltd,(02) 9958 1474,,,,,,,-33.8104459, 151.2084345
Aweena Plumbing,0411 695 860,,,22 Whaddon Ave,NSW,Dee Why,2099,-33.754521, 151.279013
A.W. Trevitt Plumbing,(02) 9369 3145,,alan.trevitt@bigpond.com,28 Asquith Ave,NSW,Rosebery,2018,-33.919549, 151.209554
Axis Plumbing Pty Ltd,(02) 9708 5666,,info@axisplumbing.com.au,5 Nelson Ave,NSW,Padstow,2211,-33.93586, 151.027839
Aywon Plumbing Service,0428 446 936,,,Alpha Omega Tally Ho Rd,NSW,Braidwood,2622,-35.39156, 149.676358
Aztec Plumbing (NSW) Pty Ltd,0418 445 830,,,10 Pinus Ave,NSW,Glenorie,2157,-33.621402, 151.0182
Australian Surface Testing,(02) 4950 6633,,,Second St,NSW,Newcastle,2300,-32.926338, 151.777686
Award Plumbing Services,0411 852 229,,,,,,,-33.70746239, 150.96286213
Awesome Plumbing Services,0402 173 987,,,39 Bonanza Parade,NSW,Sans Souci,2219,-33.992469, 151.136029
Azz Plumbing Pty Ltd,(02) 9635 0299,,,12/ 2 Horwood Pl,NSW,Parramatta,2150,-33.813529, 151.005215
Backflow Solutions NSW,(02) 4382 4303,,,74 Oceano Street,NSW,Copacabana,2251,-33.487332, 151.437972
Balmain Plumbing,0411 888 978,,balmainplumbing@gmail.com,10 Mansfield St,NSW,Rozelle,2039,-33.864935, 151.17856
Barker Corey,0419 204 226,,,11A Carlie Pl,NSW,Woonona,2517,-34.352956, 150.904739
Barry Ross Plumbing,0412 660 983,,,,,,,-28.32498498, 153.38467482
BAH Plumbing,0429 856 456,,,16 Bramwell Pl,NSW,Illawong,2234,-33.997211, 151.047967
Baird Ross V Plumbing Services,(02) 9484 1671,,,83 Copeland Rd,NSW,Beecroft,2119,-33.751999, 151.057722
Baker Craig,(02) 9975 1919,,,35 Calool Crst,NSW,Belrose,2085,-33.731757, 151.208066
Baker K &amp; J,(02) 4392 5313,,,72 Dudley St,NSW,Gorokan,2263,-33.249298, 151.50934
Baker Neil,(02) 9939 6659,,,21 Beacon Ave,NSW,Beacon Hill,2100,-33.75959, 151.26549
Baker &amp; Son Plumbers,0414 243 824,,,,,,,-33.8674861, 151.1300906
Baker-Turley Plumbing Pty Ltd,0412 244 777,,,9 Wingrove Ave,NSW,Epping,2121,-33.764937, 151.071682
Bakker J &amp; N Plumbing Pty Ltd,(02) 9982 1207,,,20 Maybrook Ave,NSW,Cromer,2099,-33.735811, 151.265933
Balsters C &amp; D,(02) 4399 1111,,,38 Huene Ave,NSW,Halekulani,2262,-33.220316, 151.553365
Bampton Plumbing,(02) 9630 6700,,,Unit 10/ 18 Loyalty Rd,NSW,North Rocks,2151,-33.775634, 151.008653
Bangalow Matt Wilson,(02) 6687 1968,,,1 Leslie St,NSW,Bangalow,2479,-28.687205, 153.520532
Bang Event Co,0418 207 889,,,,,,,-36.0807785, 146.9164693
Bannerman &amp; Binge Plumbing,0421 526 613,,b_b_plumbing@hotmail.com,6/ 5 Beach,NSW,Yamba,2464,-29.436653, 153.362675
B. A. Plumbing Pty Ltd,(02) 4573 0722,,,52 Vincents Rd,NSW,Kurrajong,2758,-33.558773, 150.6731
Barbato Paul,0428 668 696,,,PO Box 770,NSW,Gunnedah,2380,-30.98590616, 150.21267169
Barcoo Plumbing,0427 445 555,,barcooplumbing@bigpond.com,,,,,-28.7048845, 153.2646943
Barker Plumbing,0451 029 330,,,,,,,-34.055381, 151.1515789
Barker Plumbing Services,0402 794 775,,barkerplumbingservices@hotmail.com,,,,,-33.3597809, 151.4839514
Barmac Plumbing,0411 565 233,,,,,,,-33.808859, 151.1847951
Barracuda Plumbing &amp; Gasfitting,0413 377 774,,luke@barraplumbingandgas.com.au,,,,,-31.4307038, 152.9063331
Barritt Plumbing,0427 266 345,,,5 Stapleton St,NSW,Unanderra,2526,-34.44953, 150.83706
Barry Martyn Plumbing &amp; Roofing,0411 185 402,,,,,,,-32.1800654, 152.5116666
Barry McLean Plumbing PTY LTD,0427 474 467,,barrymclean73@hotmail.com,'Glendarra' 1590 Merriwa Rd,NSW,Sandy Hollow,2333,-32.334235, 150.568121
Barton Plumbing Services Pty Ltd,0451 612 298,,,,,,,-33.7959577, 151.2006086
BAS Plumbing &amp; Drainage,0459 925 253,,,,,,,-33.4938902, 151.3635225
Basso Plumbing Pty Ltd,0418 665 403,,bassoplumbing@hotmail.com,,,,,-30.2963481, 153.1156869
Bateau Bay Plumbing,0419 214 883,,bateau.bay.plumbing@gmail.com,,,,,-33.3735506, 151.4869607
Bateman Peter 24 Hr Emergency Plumbing &amp; Gasfitting,(02) 6568 7417,,,7 Hibiscus Crst,NSW,Nambucca Heads,2448,-30.646614, 152.990772
Batemans Bay Plumbing &amp; Gasfitting,0402 096 885,,batemansbayplumbing@gmail.com,PO Box 1080,NSW,Batemans Bay,2536,-35.7084221, 150.1775926
Baxflo Plumbing &amp; Gas,0407 286 622,,jeremy@baxfloplumbing.com.au,,,,,-32.9068234, 151.7272977
Ballina Byron Plumbing,0414 620 220,,johnok@outlook.com,,,,,-28.8684488, 153.5600237
Barden T J Plumbing,0408 588 991,,,271 North West Arm Rd,NSW,Grays Point,2232,-34.058268, 151.075834
Barry Morgan Plumbing,(02) 4567 7159,,,96 Hermitage Rd,NSW,Kurrajong,2758,-33.535987, 150.651378
Bay &amp; Basin Plumbing, Gas &amp; Hot Water,0413 489 520,,,,,,,-35.0921145, 150.5975695
Bayside Plumbing,0433 535 592,,,,,,,-33.4055832, 151.4653367
B.Doyle Plumbing Pty Ltd,0412 063 831,,krysn@bigpond.com,,,,,-33.7456795, 150.7395372
Beardsley Philip Plumbing,0411 315 289,,,,,,,-34.0364575, 151.0847863
Bellambi Thackas Plumbing,0411 396 101,,,,,,,-34.3677, 150.91656
Bay Wide Plumbing,0424 706 866,,,,,,,-33.9522629, 151.0321372
B&amp;B Plumbing &amp; Drainage,0431 743 394,,b.bplumbingdrainage@hotmail.com,52 Hammond Rd,NSW,Toukley,2263,-33.265341, 151.549396
B.B. Plumbing Services,0418 223 644,,,,,,,-33.66000018, 151.31554134
B &amp; B WILLIAMS PLUMBING PTY LTD,0428 441 644,,barrywilliams@y7mail.com,,,,,-36.2352845, 149.1252802
B &amp; C Carslake Plumbing Services,0429 775 200,,bccarslakeplumbing@hotmail.com,230 Summer St,NSW,Orange,2800,-33.284072, 149.100306
BCD Plumbing &amp; Gas,0458 595 381,,brendan.bcdp@gmail.com,,,,,
BDP PLUMBING PTY LTD,0404 141 031,,,20 Eucalyptus Cres,NSW,Metford,2323,-32.765231, 151.609178
BDS Plumbing,0424 477 377,,info@bdsplumbing.com.au,,,,,-33.91797644, 151.03523368
Beaches Plumbing Services,0414 252 898,,,,,,,-33.66000018, 151.31554134
Beachline Plumbing,0418 295 147,,mitch@beachlineplumbingwollongong.com.au,,,,,-34.4241792, 150.8935489
Beachside Plumbing and Gas,0426 899 075,,beachsideplumbing@outlook.com,,,,,-33.2711605, 151.4546681
Beach to Bush Plumbing,0438 674 623,,info@beachtobushplumbing.com.au,,,,,-33.7694644, 150.9084932
Bealam J Plumbing,(02) 9792 1707,,,,,,,-33.9550307, 150.9983426
Bearing Man East Pty Ltd,(02) 9666 6499,,,1/ 107 Stephen Rd,NSW,Botany,2019,-33.955552, 151.207253
Bear Plumbing Pty Ltd,,,office@bearplumbing.com.au,Unit 8/ 20 Barcoo St,NSW,Roseville,2069,-33.784983, 151.195441
Be Assured Plumbing &amp; Electrical Pty Ltd,0413 531 786,,service@beassuredplumbing.com.au,5/ 262 Kissing Pt Rd,NSW,Dundas,2117,-33.7994087094, 151.056386719
Beatson Greg,0418 610 509,,,,,,,-33.8644775, 150.640926
Beckett L H &amp; C M,0412 428 545,,,,,,,-35.2550772, 150.5147408
Beech Plumbing,0405 389 746,,,,,,,-33.2589083, 149.7478324
Beecroft Plumbing,0409 900 350,,,,,,,-33.74325296, 151.14176583
Beez Neez Plumbing Pty Ltd,0438 800 711,,beezneezservice@hotmail.com,26 Eastern Valley Way,NSW,Northbridge,2063,-33.808186, 151.208025
Bellamy Plumbing,(02) 6654 0346,,tonybellamy53@yahoo.com.au,5 Ocean Links Cl,NSW,Safety Beach,2456,-30.095001, 153.195771
Bellato P &amp;amp L,(02) 6964 9323,,,122 Erskine Rd,NSW,Griffith,2680,-34.284558, 146.025763
Bellato Plumbers Pty Ltd,(02) 6962 4295,,accounts@bellartoplumbers.com.au,3 Favell St,NSW,Griffith,2680,-34.296725, 146.047205
Bellingen Plumbing &amp; Gas,0400 394 360,,lukekrosby@gmail.com,198 Sunny Corner Rd,NSW,Bellingen,2454,-30.4520343, 152.8966816
Bellingen Plumbing Services,0408 250 904,,,,,,,-30.4520343, 152.8966816
Bell L.,(02) 9387 2391,,,1A Arnold St,NSW,Queens Park,2022,-33.89915, 151.24929
Bells Plumbing Pty Ltd,(02) 4628 4827,,,8 Flynn Crst,NSW,Leumeah,2560,-34.047084, 150.844788
Bealam J Plumbing Pty Ltd,0411 561 136,,,,,,,-33.9518679, 151.0151986
BEK Plumbing,0414 903 291,,,,,,,-34.0070312, 151.0809796
Belmont North Plumbing,(02) 4948 0861,,,,,,,-33.0205072, 151.6679883
Bennett Plumbing Pty Ltd,(02) 4234 3853,,,29 Thompsons Rd,NSW,Broughton Village,2534,-34.740934, 150.744195
Berin Trotter Plumbing &amp; Gas,0400 139 253,,berintrotter@gmail.com,,,,,-32.7008088, 151.5273508
Better Plumbing Sydney,0422 871 777,,,29 Boyle St,NSW,Croydon Park,2133,-33.893171, 151.105286
Belrose Plumbing,(02) 9975 5545,,,28 Davidson Ave,NSW,Forestville,2087,-33.757905, 151.206592
Ben Carter Plumbing,0457 775 519,,,,,,,-32.6559876, 151.351228
Benchmark Plumbing,0423 229 111,,,,,,,-33.79526988, 151.12657197
Benchmark Plumbing Services,0414 278 265,,,25 Cobblestone Pl,NSW,Werrington Downs,2747,-33.74274, 150.735512
Ben Collier Plumbing,0413 740 225,,bencollierplumbing@hotmail.com,34 Evelyn Crst,NSW,Thornton,2322,-32.771683, 151.633861
Bendalong Manyana Plumbing,(02) 4456 1205,,nigeandkim@aapt.net.au,14 Calgary Pl,NSW,Cunjurong Point,2539,-35.262486, 150.508104
Ben Dawes Plumbing,0404 195 011,,,,,,,-33.7985329, 151.2861734
Bendy's Plumbing &amp; Gasfitting,0428 151 260,,bjkay11@gmail.com,,,,,-33.2540942, 149.1510669
Bennetts P &amp; V Plumbing Service,(02) 6947 1143,,,60 Adelong Rd,NSW,Tumut,2720,-35.29634, 148.21102
Bennett Steve Plumbing Service,(02) 9533 4911,,,776 Forest Rd,NSW,Peakhurst,2210,-33.957903, 151.065205
Bennett T Plumbing,0432 806 344,,,300 Iluka Rd,NSW,Woombah,2469,-29.358991, 153.277517
Ben Nolan Plumbing Services,0404 847 954,,info@bennolanplumbing.com.au,,,,,-33.8294285, 151.2441266
Ben Ryan Plumbing,0434 730 986,,,,,,,-31.0904743, 150.9325757
Ben Suttor Plumbing,(02) 6379 6299,,,,,,,-32.7994987, 149.9715451
Bensville Plumbing,0410 314 938,,,31 Yarram Rd,NSW,Bensville,2251,-33.50418, 151.39041
Berger Plumbing Pty Ltd,(02) 9525 3744,,bergerplumbing1@bigpond.com,,,,,-34.0364575, 151.0847863
Bermingham P A,(02) 6566 6782,,,5 Steve Eagleton Dr,NSW,South West Rocks,2431,-30.905824, 153.041539
Bernie Walsh Plumbing Services Pty Ltd,0411 092 932,,,24 Kingsford Smith Rd,NSW,Boorooma,2650,-35.069433, 147.373594
Berowra Plumbing,0416 018 421,,,,,,,-33.623661, 151.1510303
Berrigan Plumbing,0411 818 357,,rmberrigan@gmail.com,32 Dunban Rd,NSW,Woy Woy,2256,-33.49845, 151.316262
Bertram Plumbing,0419 442 897,,bertramplumbing@gmail.com,,,,,-33.9547493, 150.9453992
Best Hot Water Services,(02) 9337 1009,,,310 New South Head Rd,NSW,Double Bay,2028,-33.878369, 151.241698
Best Plumbers S J &amp; J A,0428 696 774,,jabjul9@gmail.com,22 Erskine Rd,NSW,Griffith,2680,-34.29429, 146.02996
Betland plumbing,0406 016 855,,tbetland@yahoo.com.au,3 Norahview St,NSW,Bateau Bay,2261,-33.385034, 151.479446
Beyond Plumbing,0404 038 708,,,2/ 18 Winter Pl,NSW,Jerrabomberra,2619,-35.372744, 149.201511
B.G. Enterprises (NSW) P/L - BG Plumbing,(02) 4731 8200,,,14 Altair Pl,NSW,Penrith,2750,-33.77117, 150.685736
B &amp; G Harding,0437 473 243,,,8 Elizabeth St,NSW,Cooma,2630,-36.23945, 149.11575
B &amp; G Plumbing &amp; Drainage,0431 977 813,,,,,,,-33.4230145, 151.4389669
B.H Plumbing,0459 395 107,,BHPlumbing2@outlook.com,,,,,-36.6742276, 149.8429277
BH Plumbing &amp; Heating Pty Ltd,0404 459 949,,bhplumbandheat@gmail.com,,,,,-33.7183053, 151.28772218
Bialek A &amp; R,(02) 4932 0590,,,5 Capper St,NSW,Telarah,2320,-32.721861, 151.535713
Bengello Property Service,0407 446 862,,,,,,,-35.8550006, 150.1746334
Betterflo Plumbing &amp; Drainage,0404 008 634,,,,,,,-34.0489887, 150.8199954
Big Blue Hot Water &amp; Plumbing,(02) 9524 1972,,,8/ 59-63 Captain Cook Dr,NSW,Caringbah,2229,-34.03152, 151.1216
Big Flush Plumbing,0416 072 087,,bigflush@tpg.com.au,2 Charles St,NSW,Newtown,2042,-33.897293, 151.17322
Bills Plumbing,0414 299 210,,,,,,,-33.8832003, 151.0015743
BJ Crowley Plumbing Pty Ltd,(02) 6581 3051,,bjplumbing@bigpond.com,,,,,
B K Plumbing,0409 752 377,,,,,,,-33.4341499, 151.2959612
BIGFOOT PLUMBING,0403 508 795,,bigfootplumbing@outlook.com,,,,,-33.0205072, 151.6679883
Bigfoot Plumbing,0403 508 795,,bigfootplumbing@outlook.com,,,,,-32.9266689, 151.7800187
Bignell Plumbing,0414 513 625,,,1442 Ganbenang Rd,NSW,Ganbenang,2790,-33.640951, 150.15048
Big Red Plumbing Services,0409 838 651,,bigredplumbingservices@gmail.com,,,,,-33.7872766, 150.9509084
Bill Dowdy,0407 006 062,,,6 Birch Gr,NSW,Mudgee,2850,-32.615809, 149.595996
Bill Dwyer's Plumbing Service Pty Ltd,0417 423 143,,btdwyers6@bigpond.com,Whispering Pines 800 Cargo Rd,NSW,Nashdale,2800,-33.293782, 149.004774
Binks Plumbing,0448 850 373,,,,,,,-32.246403, 148.59125
Bioletti Keith,(02) 4285 3386,,jmcmahon4@bigpond.com,,,,,-34.3713568, 150.8972869
Birchill Plumbing,0418 241 414,,plumbing-repairs@birchillplumbing.com.au,51A Leeward Cct,NSW,Tea Gardens,2324,-32.650575, 152.155313
Bird Plumbing,0418 974 807,,peterbird@y7mail.com,,,,,-33.7399935, 151.2759423
Bird's Plumbing Service,0412 245 295,,richardbird@optusnet.com.au,63 Ridge St,NSW,Gordon,2072,-33.753852, 151.145207
Bird Stephen Ross,0419 550 717,,,17a Cowmeadow Road,NSW,Mt Hutton,2290,-32.979416, 151.666017
Birdy's Plumbing Service,0439 714 656,,birdys.plumbing.service@outlook.com,64 Gipps St,NSW,Dubbo,2830,-32.243624, 148.612402
B &amp; J Armstrong Plumbing,(02) 4872 4914,,bjarmst@bigpond.net.au,,,,,-34.4509675, 150.4465987
BJ Crowley Plumbing Pty. Ltd.,(02) 6884 7261,,bjplumbing@bigpond.com,Building 2 3 Capital Dr,NSW,Dubbo,2830,-32.263257, 148.652482
BK Plumbing Services,0432 085 930,,bkplumbingservices@gmail.com,21 Witcom St,NSW,Cranebrook,2749,-33.716996, 150.711649
B &amp; K Stathis Plumbing,0412 863 890,,,370 Maroubra Rd,NSW,Maroubra,2035,-33.94147, 151.25389
Blackbird Plumbing,0414 426 921,,jayec@ymail.com,75 Grayson Ave,NSW,Newcastle Suburbs Kotara,2289,-32.946174, 151.701691
Blackheath Katoomba Plumbing,0438 699 912,,,,,,,-33.6356669, 150.2853372
Blackheath Plumbing &amp; Draining Pty Ltd,(02) 4787 8378,,,31 Evans Lookout Rd,NSW,Blackheath,2785,-33.65016, 150.28831
Black Label Plumbing,0414 483 031,,blacklabelplumbing@live.com.au,,,,,-33.9225153, 151.2041012
Blackley Plumbing,0400 415 184,,,,,,,-33.5002105, 151.3905756
Blacksmiths Plumbing Service,0409 776 582,,blacksmithsplumbingservice@gmail.com,,,,,-33.079134, 151.6499502
Bill Murphy Plumbing Services,0408 692 786,,,,,,,-35.1147668, 147.3696159
B &amp; J Clough Plumbing,(02) 4455 1703,,jclough@bigpond.net.au,6 Byangee St,NSW,Ulladulla,2539,-35.350508, 150.46049
Blacktown City Plumbing Service Pty Ltd,0414 484 896,,,,,,,
Blockage Busters,(02) 9477 3634,,,PO Box 732,NSW,Hornsby,2077,-33.7031604, 151.1004777
Blue Mountains Plumbing &amp; Hot Water,(02) 4708 9626,,bluemountainsplumbing@yahoo.com,,,,,-33.7672408, 150.6218176
B McBaine Plumbing,0428 282 906,,,3 Kookaburra Ct,NSW,Tura Beach,2548,-36.850284, 149.925876
Blacktown Industrial Plumbing,(02) 9679 0110,,,,,,,-33.65202974, 150.94123573
Blacktown Industrial Plumbing Pty Ltd,(02) 9679 0110,,,,,,,-33.7694644, 150.9084932
Blacktown Plumbers,(02) 8294 5464,,blacktownplumbers@gmail.com,35 Frederick St,NSW,Blacktown,2148,-33.752314, 150.921058
Blair Merlehan Plumbing,0406 804 633,,blair@merlehanplumbing.com.au,,,,,-35.1147668, 147.3696159
Blakemore's Plumbing &amp; Excavations,0414 341 888,,,40 Pitnacree Rd,NSW,East Maitland,2323,-32.74006, 151.58546
Blandford Plumbing Pty Ltd,0411 824 439,,jpnash_plumbing74@yahoo.com.au,,,,,-31.7872389, 150.8976811
Blayney Plumbing Service,0418 650 489,,davidclaypole@westnet.com.au,,,,,-33.5320179, 149.2553401
Blewitt G A,(02) 9723 3315,,,8 Lovoni St,NSW,Cabramatta,2166,-33.89659, 150.94498
Blockbusters Group PTY LTD,0417 177 177,,,54 Dutton St,NSW,Bankstown,2200,-33.913313, 151.021577
Blocked Drain Experts,0415 716 711,,blockedrainexperts@outlook.com.au,,,,,-33.90266885, 151.02213632
Blocked Plumbing Services,(02) 4334 2186,,office@blockedplumbingservices.com,,,,,-33.3656874, 151.4627304
Blocked Up,0411 318 409,,,250 The Entrance Rd,NSW,Erina,2250,-33.43204, 151.39219
BL Plumbing Services Pty Ltd,0416 232 361,,brent@blplumbing.com.au,,,,,-31.4307038, 152.9063331
BLUECHIP PLUMBING SERVICES PTY LTD.,0452 381 501,,,2-4 Adelong St,NSW,Sutherland,2232,-34.03197, 151.055761
Blue Point Plumbing &amp; Drainage,0421 422 637,,,5 Biscay Cl,NSW,Anna Bay,2316,-32.776302, 152.083095
Blue Ribbon Plumbing Service,(03) 9555 5844,,,Factory 3 1-7 Friars Rd,VIC,Moorabbin,3189,-37.94614, 145.06236
Blue Ring Plumbing Solutions,0427 543 178,,,199 Red Gum Rd,NSW,Old Bar,2430,-31.948437, 152.574843
Bluewater Plumbing,(02) 9894 2544,,,Unit 13/ 5 Gladstone Rd,NSW,Castle Hill,2154,-33.732077, 150.977195
Bluey's Plumbin' &amp; Diggin' Pty Ltd,0403 191 780,,office@blueysplumbin.com.au,,,,,-35.6674687, 147.0371576
B Mason Household Maintenance,(02) 9460 3543,,,18 Warringa Rd,NSW,Cammeray,2062,-33.823785, 151.214932
B &amp; M Bishop Plumbing,(02) 9661 5282,,,45 Romani Parade,NSW,Matraville,2036,-33.958471, 151.241497
B McKechnie Plumbing,0411 390 082,,,,,,,-32.0553855, 151.951769
BM Plumbing &amp; Maintenance,(02) 4355 0870,,mathobr@hotmail.com,,,,,-33.2836296, 151.4230137
B M Williams Plumbing &amp; Gasfitting,0423 746 202,,,,,,,-33.2835775, 149.1012702
BOB AND SIM PLUMBING,0406 960 786,,shubhamv110@gmail.com,,,,,-33.6976036, 150.8324909
Bob Crook Plumbing,0407 783 624,,valcrook@bigpond.com,101 North St,NSW,Ulladulla,2539,-35.352063, 150.477647
Bob Hanna Plumbing,0415 974 991,,,37 Burraddar Ave,NSW,Engadine,2233,-34.05589, 151.00889
Bob McKinnon Plumbing Pty Ltd,(02) 6332 4806,,,84 Fry's Lane,NSW,Bathurst,2795,-33.45242, 149.62549
Blewitt W,(02) 9724 1471,,,59 Lovoni St,NSW,Cabramatta,2166,-33.9015, 150.94294
Blue Dog Plumbing,0419 688 803,,,,,,,-33.4605215, 150.9947429
BMB Plumbing &amp; Roofing Pty Ltd,0437 595 524,,ben@bmbplumbing.net.au,,,,,-33.4186086, 149.5837826
Bob Richard,(02) 6337 5327,,bobandamanda1@hotmail.com,3439 Great Western Hwy,NSW,Yetholme,2795,-33.441772, 149.840266
Bodel's Plumbing Service P/L,(02) 6971 3855,,plumbing@mickbodel.com,,,,,-35.1147668, 147.3696159
Bonville Plumbing,(02) 6653 4489,,,378 Gleniffer Rd,NSW,Bonville,2441,-30.379965, 152.997416
Booth Contracting Pty Ltd,(02) 4057 2721,,admin@boothcontracting.com.au,,,,,
Bodmin Plumbing Services Pty Ltd,0474 352 727,,accounts@bodminplumbing.com.au,Unit 12 17 King Rd,NSW,Hornsby,2077,-33.698032, 151.10966
Bohdy Vassallo,0434 179 823,,,,,,,-34.4937933, 150.7944772
Bolger &amp; Smith,(02) 6761 7040,,bolger-plumbing@bigpond.com,23 Belmore St,NSW,Tamworth,2340,-31.087711, 150.913182
Bondi Drainage Sewer Solutions,0402 017 346,,,32 Telopea St,NSW,Redfern,2016,-33.894166, 151.212441
Bondi Emergency Plumbing,0414 234 452,,info.bondiemergencyplumbing@gmail.com,,,,,-33.8938118, 151.2630738
Bondi Plumbing,(02) 9417 0320,,marketing@bondiplumbing.com.au,127 Bondi Rd,NSW,Bondi,2026,-33.893996, 151.262648
Bondi Plumbing Pty Ltd,0410 495 979,,,PO Box 7240,NSW,Bondi Beach,2026,-33.8908435, 151.2742906
Bonner &amp; Sons Plumbing Services,0419 681 573,,bonnersplumbing@optusnet.com.au,,,,,-33.8481508, 151.1281365
Boomers Plumbing Service,1800 675 244,,,,,,,-33.2578199, 151.5109456
Booth Contracting,(02) 4932 8779,,admin@boothcontracting.com.au,37 Little Barber St,NSW,Gunnedah,2380,-30.976111, 150.246778
Border Gas &amp; Plumbing,0408 208 146,,bordergas@bigpond.com,,,,,-36.0807785, 146.9164693
Bossley Plumbing Services Pty Ltd,(02) 9823 1339,,,110 Restwell Rd,NSW,Bossley Park,2176,-33.861958, 150.886804
Bow Bowing Plumbing,0401 790 211,,mfarrell@bowbowingplumbing.com.au,,,,,-34.0323613, 150.8490483
Bowman G &amp; A,0414 544 480,,g_abowman@yahoo.com.au,20 Chisholm St,NSW,North Ryde,2113,-33.792859, 151.130457
Bowral Plumbing Services,(02) 4872 2202,,,9 Elm St,NSW,Bowral,2576,-34.480675, 150.428989
Boyd Gelfius Plumbing,0418 654 554,,,,,,,
Boyd Parsons Plumbing,(02) 9533 6257,,,PO Box 81,NSW,Mortdale,2223,-33.9705158, 151.0800503
Boyle Michael,(02) 6021 8274,,michaelboyleplumbing@bigpond.com,,,,,-36.0807785, 146.9164693
Bonnet Bay Plumbing,(02) 9528 5992,,,,,,,-34.0041765, 151.0689861
B &amp; P Holz Plumbing,(02) 4579 6718,,,,,,,-33.6349133, 150.7892219
Brada's Plumbing,(02) 4736 3888,,,,,,,-33.7821443, 150.7088773
Brad Nelson Plumbing Pty Ltd,0408 752 124,,bn.plumbing@hotmail.com,12 Cherry Rd,NSW,Eleebana,2282,-32.988451, 151.656142
Brent Baker Plumbing,0432 043 562,,,6 Roma Tce,NSW,Port Macquarie,2444,-31.473641, 152.925569
Brian's Plumbing Service,0411 529 313,,brianviles@gmail.com,66 Gungah Bay Rd,NSW,Oatley,2223,-33.974873, 151.072014
Brad Bush Plumbing,0415 135 360,,brad@bradbushplumbing.com.au,,,,,
Brad Cooper Plumbing &amp; Gasfitting,0427 043 380,,,PO Box 4234,NSW,Forster,2428,-32.1800654, 152.5116666
Bradford Plumbing Pty Ltd,0450 022 780,,bradfordplumbing@hotmail.com,,,,,-33.7533368, 150.6596999
Brad Glasgow Plumbing,0419 484 604,,,30/ 30 Macpherson St,NSW,Warriewood,2102,-33.682746, 151.288573
Brad Lantry Plumbing Services Pty Ltd,(02) 4934 3091,,admin@bradlantryplumbing.com.au,,,,,-32.7512547, 151.5895846
Bradley Wood Plumbing Services,0418 474 943,,brad.wood5@bigpond.com,,,,,-32.3624846, 149.532096
Brad McAneney Plumbing,0429 323 511,,,,,,,-32.246403, 148.59125
Bradon Plumbing,0418 272 443,,bradonplumbing@hotmail.com,,,,,-33.63182273, 150.96750132
Brad Palmer Plumbing,0407 551 903,,accounts@bradpalmerplumbing.com.au,,,,,-33.68750078, 151.29338809
Brads On Tap Plumbing Services Pty Ltd,(02) 9557 4648,,Admin@bradsontap.com,PO Box 142,NSW,St Peters,2044,-33.9119713, 151.1795694
Braga plumbing,0431 548 101,,,54 Liverpool St,NSW,Liverpool,2170,-33.933658, 150.90567
Brandes Fred,(02) 4382 4303,,,74 Oceano St,NSW,Copacabana,2251,-33.487332, 151.437972
Brelace Pty Ltd,0418 288 514,,,1 Fig Pl,NSW,Mt Pritchard,2170,-33.89681, 150.89626
Brendan Constance Plumbing,0449 913 329,,brendan@bconstanceplumbing.com.au,,,,,-36.6742276, 149.8429277
Brendan Erickson Plumbing,0478 528 344,,,,,,,-34.5800896, 150.8555255
Brenton Dyer Plumbing,0409 873 540,,info@bdyerplumbing.com.au,,,,,-30.592506, 153.0058456
Brett Case Plumbing,0409 911 628,,brettcase@hotmail.com,,,,,-35.1147668, 147.3696159
Brett Chandler Plumbing,(07) 5536 4654,,,26 Wyuna Rd,NSW,Tweed Heads West,2485,-28.19029, 153.52271
Brett Gray Plumbing,0412 686 617,,brettgrayplumbing@gmail.com,21 Hodgson St,NSW,Crescent Head,2440,-31.190582, 152.973859
Brett Hoban Plumbing Pty Ltd,0412 548 085,,,,,,,-33.08527239, 151.6329394
Brett King Plumbing,(02) 4233 1869,,,150A Terralong St,NSW,Kiama,2533,-34.667826, 150.849398
Brewer Plumbing and Drainage,0412 522 825,,brewerplumbing@outlook.com.au,,,,,-34.8423763, 148.9114753
Brian Cook Plumbing,(02) 6650 0147,,briancookplumbing@iinet.net.au,20B Lawson Cres,NSW,Coffs Harbour,2450,-30.289994, 153.128171
Bridgewood Ian Plumbing,0407 886 704,,,95 Church St,NSW,Balranald,2715,-34.63806, 143.56542
Brierty Richard,0414 435 689,,rsbrierty@bigpond.com,,,,,-33.4652738, 151.4339404
Brights Plumbing Services,0408 974 254,,,,,,,-31.9692248, 152.5863946
Brimar Plumbing Pty Ltd,0418 972 714,,,22 Wentworth Ave,NSW,Moorebank,2170,-33.97576, 150.8933
Brinkley M &amp; S,(02) 4951 7429,,,13 Hill St,NSW,Wallsend,2287,-32.899304, 151.66061
Brinlex Group Pty Ltd,1300 913 917,,plumber@brinlex.com.au,,,,,-33.7031604, 151.1004777
Brisbane Water Plumbing,0417 610 590,,,98 Rickard Rd,NSW,Empire Bay,2257,-33.493858, 151.354578
Britto's Plumbing,0425 371 934,,brittosplumbing@yahoo.com.au,,,,,-33.6349133, 150.7892219
Brad Naylor Plumbing,0409 532 259,,,Redgum Dr,NSW,Leeton,2705,-34.524325, 146.408993
Brendon McClement Plumbing,(02) 4759 2115,,,4 Railway Pde,NSW,Hazelbrook,2779,-33.720486, 150.447626
Brian Graham Drainage P/L,0408 265 618,,,,,,,-34.2255677, 150.5887615
B &amp; R King Plumbing,0409 929 305,,beau.king85@gmail.com,,,,,-31.6345904, 152.7584288
Broadstock Plumbing,0414 463 277,,,,,,,-33.9145895, 151.2417243
Browne &amp; Taylor Plumbing Services,0401 154 532,,btps_steven@outlook.com,,,,,-34.0861145, 150.7870225
Bryan Mansfield Plumbing,(02) 6586 3245,,,109 William St,NSW,Port Macquarie,2444,-31.430899, 152.909006
Burgess Plumbing Services Pty Ltd,0438 007 586,,burgessplumbingservices@hotmail.com,,,,,-30.9958931, 150.9169699
Brock's Plumbing &amp; Maintenance,0418 672 873,,,3 Sussman Ave,NSW,Bass Hill,2197,-33.909541, 151.001624
Brock's Plumbing &amp; Maintenance Service,1300 672 873,,,,,,,-33.67440769, 151.30090368
Brock Wildman Plumbing,0411 317 988,,brockwildman@hotmail.com,18 Shoal Bay Rd,NSW,Nelson Bay,2315,-32.717891, 152.162876
Brodie Pigdon Plumbing,0427 205 586,,brodiepigdon@gmail.com,,,,,-36.0445786, 146.9900788
Broken Hill Plumbing Services,0488 041 062,,cpearce8@live.com,,,,,-31.9558883, 141.4653416
Bromic Plumbing &amp; Gas,(02) 9426 5222,,,10 Phiney Pl,NSW,Ingleburn,2565,-33.988113, 150.873939
Brooker S J &amp; Partners,(02) 9823 5187,,,43 Bancroft Rd,NSW,Abbotsbury,2176,-33.873733, 150.865542
Brotherson Grahame - Grafton Gas &amp; Plumbing,0418 666 301,,grub@graftongasandplumbing.com,50 Pound St,NSW,Grafton,2460,-29.69213, 152.93981
Brown I P &amp; G M,(02) 4441 2507,,,3 Lakeway Ave,NSW,Berrara,2540,-35.203159, 150.546112
Brown &amp; Moodie NSW Pty Ltd,(02) 9722 6900,,,7 Nelson Ave,NSW,Padstow,2211,-33.935875, 151.028735
Brown Neil Plumbing Services,0428 260 148,,,PO Box 152,NSW,Merimbula,2548,-36.8879351, 149.9070734
Browny's plumbing maintenance,0408 183 776,,,7 Corcoran Pl,NSW,Crookwell,2583,-34.453984, 149.459855
BR Plumbing &amp; Excavations,(02) 4930 9047,,enquiries@brplumbing.com.au,,,,,-32.7025358, 151.4797977
Bruce Creecy Plumbing,(02) 9555 8811,,,42 Terry St,NSW,Rozelle,2039,-33.858566, 151.171329
Bruce Jobson Plumbing,(02) 6629 8508,,,26 Wybelena Rd,NSW,Wyrallah,2480,-28.892886, 153.314181
Bruce Jobson Plumbing &amp; Roofing,(02) 6624 4662,,bruce@brucejobsonplumbing.com.au,64 Lancaster Dr,NSW,Goonellabah,2480,-28.818462, 153.34862
BTN Plumbing and Metal Roofing,0408 656 771,,,,,,,-33.30379407, 151.43136544
Buchanan Plumbing,0407 119 910,,,,,,,-35.9549378, 146.8887096
Buchanan Plumbing &amp; Gas,0407 119 910,,buchananplumbingandgas@gmail.com,,,,,-28.32498498, 153.38467482
Buckton Plumbing,(02) 9340 7007,,,,,,,-33.9125436, 151.2629293
Buddee Plumbing,0415 531 600,,buddeeplumbing@gmail.com,4 Leopold St,NSW,Croydon Park,2133,-33.894258, 151.115777
Bula Bula Plumbing Service,0414 901 608,,pauliasimateboto@hotmail.com,,,,,-33.91063, 151.15646
Bulli Plumbing Services Pty Ltd,0421 532 986,,bulliplumbing@gmail.com,,,,,-34.3338628, 150.9133841
Bull Plumbing,0418 472 272,,bullplum@bigpond.net.au,,,,,-33.74325296, 151.14176583
BURNS DAVID Plumbing,(02) 6562 6876,,info@davidburnsplumbing.com.au,,,,,
Burns David Plumbing Pty Ltd,(02) 4334 6166,,,73 Bateau Bay Rd,NSW,Bateau Bay,2261,-33.37952, 151.48301
Burns F,(02) 4334 6166,,,50 Bondi Rd,NSW,The Entrance North,2261,-33.329096, 151.508261
Burraga Copper Limited,(02) 9252 4450,,,3 Spring St,NSW,Sydney,2000,-33.86425, 151.209289
Burst Pipes Plumbing,(02) 9037 3931,,,151 Parramatta Sq,NSW,Parramatta,2150,-33.816026, 151.00468
Burton Trevor,(02) 6341 1658,,,,,,,-33.8347435, 148.6915923
Burto's Plumbing,0418 452 483,,burtosplumbing1@gmail.com,11 Parkes St,NSW,Cowra,2794,-33.840243, 148.691456
Burt's Plumbing &amp; Gas,0439 709 227,,burtsplumbingandgas@gmail.com,,,,,-29.7762792, 151.1134357
Broughton Plumbing Services,0413 304 319,,,21 Miriam Ct,NSW,Baulkham Hills,2153,-33.739609, 150.980824
Burgess Plumbing and Maintenance,0422 125 707,,,17 Drury Lane,NSW,Milton,2538,-35.319496, 150.441154
Buzz Plumbing,1300 792 696,,info@buzzplumbing.net.au,Unit 5 15 Kangoo Rd,NSW,Somersby,2250,-33.425491, 151.289376
Byron Plumbing Services,(02) 9971 1564,,,68 Delmar Parade,NSW,Dee Why,2099,-33.757247, 151.286246
Cabarita Beach Plumbing,0414 800 897,,,,,,,-28.3289722, 153.5689872
Camelot Plumbing and Gas Fitting Pty Ltd,0490 120 694,,info@camelotplumbing.com.au,87 Roscoe St,NSW,Bondi Beach,2026,-33.890046, 151.273516
Caprice Plumbing Services,0428 438 901,,,22 Dover Rd,NSW,Wamberal,2260,-33.430361, 151.443502
Cascade Plumbing,0411 049 904,,,31 Sovereign Crest Blv,VIC,Rowville,3178,-37.905159, 145.275969
C &amp; A Drain,(02) 4956 5235,,,56 Wansbeck Valley Rd,NSW,Cardiff,2285,-32.933544, 151.66461
Callaghan Plumbing,(02) 4739 0168,,accounts@callaghanplumbing.com,44 Emu Rd,NSW,Glenbrook,2773,-33.77602, 150.628852
Callala Plumbing,(02) 4447 5005,,,,,,,-34.9235355, 150.6712831
Callaway Plumbing,0404 448 624,,ben@callawayplumbing.com.au,66 Brush Rd,NSW,Wamberal,2260,-33.419412, 151.428822
Call...Matt The Plumber,0418 838 000,,mwricey@mac.com,,,,,-34.5800896, 150.8555255
C A Lowe Plumbing,(02) 8765 8750,,,18 Llewellyn St,NSW,Rhodes,2138,-33.82829, 151.091303
Calow P A,0418 260 400,,,,,,,-33.63182273, 150.96750132
Cameron Rich Plumbing Services,0407 391 089,,,,,,,-32.3932562, 151.2171796
Campbells Beer Plumbing Pty Ltd,(02) 4958 5539,,,37 Macquarie St,NSW,Boolaroo,2284,-32.954565, 151.619987
Campbell's Complete Plumbing,0400 497 493,,campbellscompleteplumbing@gmail.com,,,,,-31.1224782, 150.989701
Canterbury-Bankstown Plumbing Services,0406 125 435,,,228 Canterbury Rd,NSW,Canterbury,2193,-33.913635, 151.11566
Can't Stop Plumbing,0406 837 034,,rickdakic@me.com,2 Kona Cl,NSW,Berowra,2081,-33.616984, 151.149589
Cape Byron Plumbing,(02) 6680 9997,,,Unit 2 68 Centennial Cct,NSW,Byron Bay,2481,-28.63645, 153.57807
Capertee valley plumbing and gasfitting services,0433 364 416,,,,,,,-33.144994, 149.9814458
Capital Precast &amp; Drainage,(02) 6299 3422,,cappre@bigpond.net.au,13 Endurance Ave,NSW,Queanbeyan East,2620,-35.340141, 149.245727
Cardiff Plumbing,(02) 4954 0309,,,,,,,-32.9397244, 151.6590533
Carrick Plumbing &amp; Roofing,(02) 6581 4589,,portmacquarie@plumbing.obrien.com.au,,,,,
CarterCo Plumbing &amp; Relining,0450 525 567,,,,,,,-33.75554819, 151.15338699
Case Plumbing,(02) 4392 9988,,,Railway Rd,NSW,Warnervale,2259,-33.2510325, 151.4439106
Casino Plumbing,0401 000 889,,casinoplumbing@outlook.com,,,,,-28.8642401, 153.0456834
Cassar Plumbing Services,0410 152 483,,cassarplumbing@hotmail.com,,,,,
CASTLE PLUMBING AND DRAINAGE,0438 514 589,,nathancastleplumbing@outlook.com,Unit 26 286-288 New Line Rd,NSW,Dural,2158,-33.696055, 151.031983
Casuarina plumbing,0439 484 308,,,4 Callistemon Ave,NSW,Casuarina,2487,-28.294845, 153.56982
Cattley Plumbing,0409 167 158,,CattleyPlumbing@bigpond.com,,,,,-34.1906775, 150.9823962
CBD Plumbing,0407 678 652,,,,,,,-33.9441916, 151.196217
C &amp; C Wolfenden Plumbing,(02) 4946 8027,,,3 Valiant Ave,NSW,Valentine,2280,-33.010672, 151.642499
Cambewarra Plumbing,0412 229 895,,,410B Moss Vale Rd,NSW,Cambewarra,2540,-34.81275, 150.57533
C &amp; A Plumbing,0427 537 373,,,5 Guild Pl,NSW,Leeton,2705,-34.547866, 146.420763
Cartman Plumbing,(02) 4735 1892,,cartmanplumbing@y7mail.com,,,,,-33.7533368, 150.6596999
CDB Plumbing &amp; Drainage,0404 466 578,,angelina@cdbplumbing.com.au,6 Royal Dr,NSW,Pottsville,2489,-28.396492, 153.561793
C &amp; D Constructions (NSW) Pty Ltd,(02) 4333 1516,,,18 Strickland Rd,NSW,Killarney Vale,2261,-33.36574, 151.45759
Certified plumbing Group,0450 103 050,,certifyplumb@outlook.com.au,,,,,-33.8541009, 150.9865844
Cheney's Plumbing Services,0400 523 615,,cheneygroup@bigpond.com,26 Hill St,NSW,Forbes,2871,-33.387475, 148.013841
Chris Ballesty Plumbing Services,0412 618 141,,,4 Samaroi Pl,NSW,Beacon Hill,2100,-33.74902, 151.26246
CDI Plumbing,(02) 4284 8835,,cdiplumbing@bigpond.com,,,,,-34.3338628, 150.9133841
C &amp; D Plumbing Services,(02) 9585 9650,,,,,,,-33.9822255, 151.0816406
Celtic Plumbing Services,(02) 4631 1390,,mckingfarm@bigpond.com,725 Wilton Rd,NSW,Appin,2560,-34.221285, 150.769658
Central Coast Backflow Specialist,0418 434 820,,pdamaso@tpg.com.au,,,,,-33.2833443, 151.5661182
Central Coast Backflow Specialists,0418 434 820,,,,,,,-32.9615323, 151.7145576
Central Coast Maintenance Plumbing Services,(02) 4388 5256,,,29 Kingsford Smith Drv,NSW,Berkeley Vale,2261,-33.335927, 151.433185
Central Coast Wide Plumbing,0450 373 505,,centralcoastwideplumbing@bigpond.com,,,,,-33.2578199, 151.5109456
Central Mountains Plumbing,(02) 4758 8788,,,,,,,-33.721529, 150.453003
Cervini Bros. Plumbing,0449 238 673,,jesse_c96@hotmail.com,,,,,-34.4800735, 150.900495
CGC Gas &amp; Plumbing Services,0400 010 230,,cgcgasandplumbing@bigpond.com,Lvl 1 40-42 The Kingsway,NSW,Cronulla,2230,-34.05086, 151.15092
CGS Plumbing Services,,,charlie@cgsplumbing.com.au,124 Chetwynd Rd,NSW,Merrylands,2160,-33.845232, 150.980133
Chad Warrington Plumbing,0421 712 971,,chadwarrington@hotmail.com,31 Compass Cl,NSW,Salamander Bay,2317,-32.736654, 152.088699
Chain Valley Bay Plumbing,(02) 4358 8308,,cvbplumbing@bigpond.com,51 Trevally Ave,NSW,Chain Valley Bay,2259,-33.173573, 151.571694
Chappo's Plumbing And Excavation,0488 432 562,,chappo_bjc@hotmail.com,,,,,-34.3142198, 148.2977066
Chatswood Plumbing,0439 778 877,,,,,,,-33.7840081, 151.177542
Chay's Plumbing,0429 805 081,,chays_plumbing@live.com.au,,,,,-28.51858537, 153.53331641
Cherrybrook Plumbing,(02) 9899 1970,,tom@toiletandtaps.com.au,,,,,-33.7218136, 151.0435885
Cherry Plumbing Services,(02) 9418 7888,,alcherry@primusonline.com.au,,,,,-33.8145564, 151.1698948
Chilli Hot Water &amp; Plumbing,0410 669 249,,info@chillihotwater.com.au,,,,,-33.8919178, 151.0835091
Chippa's Plumbing,0458 516 491,,chippasplumbing@gmail.com,13 Mitchell Parade,NSW,Orange,2800,-33.297685, 149.093782
CHIPS Property Trade Services Pty Ltd,(02) 9625 5955,,info@chipspts.com.au,3/ 43 Sterling Rd,NSW,Minchinbury,2770,-33.782117, 150.816398
Chiswick Plumbing,1300 552 248,,accounts@chiswickplumbing.com.au,170 George St,NSW,Concord West,2138,-33.850832, 151.083783
Chocka Block Plumbing,0429 987 738,,chockablockplumbing@gmail.com,,,,,-34.4556195, 149.4674255
Chris Chiddy Plumbing,0410 497 930,,,Unit 2 29 Thornton St,NSW,Fairlight,2094,-33.7943, 151.27731
CHRIS LAWLER PLUMBING,0450 410 114,,plumbingcl@gmail.com,,,,,-33.7183053, 151.28772218
Chris Perry Plumbing,0425 311 400,,,28 Davidson Ave,NSW,Forestville,2087,-33.757905, 151.206592
Chris Thomas Plumbing,0407 775 585,,cthomasplumbing@yahoo.com,,,,,-33.2835775, 149.1012702
Christie's Plumbing &amp; Septic Cleaning,0429 393 900,,oneills20@gmail.com,,,,,-29.7762792, 151.1134357
Christie's Plumbing Services Pty Ltd,(02) 9718 4902,,christiesplumb@bigpond.com,,,,,-33.926374, 151.125934
Chrome Plumbing Services,0414 678 432,,chromeplumbingservices@gmail.com,,,,,-34.0540469, 150.6698337
Citicoast Plumbing Pty Ltd,0448 385 250,,citicoastplumbing@bigpond.com,,,,,-33.1941119, 151.5703578
Century Gold Plumbing,0414 268 852,,,11 Gungarlin Dr,NSW,Horningsea Park,2171,-33.94625, 150.847024
Cheap Blocked Drains Sydney,(02) 9119 1348,,,,,,,-33.90266885, 151.02213632
Choice Plumbing - Commercial and Domestic Plumbing Services,,,choiceplumbing12@gmail.com,,,,,-33.8908435, 151.2742906
City Coast Plumbing &amp; Maintenance Services,(02) 4257 4500,,info@ccmaintenanceservices.com.au,PO Box 311,NSW,Oak Flats,2529,-34.5634202, 150.8189842
City Country Coastal Hydro Excavations,0447 599 270,,info@citycountrycoastalhydroexcavation.com.au,,,,,-34.7545432, 149.7178169
City Wide Plumbing Services,0410 792 625,,citywideplumbingserve@gmail.com,,,,,-33.8915257, 151.0500147
Clarence Valley Plumbing &amp; Gasfitting,0422 823 332,,,11 Cook St,NSW,Yamba,2464,-29.436804, 153.342581
Clayworth Cross Plumbing,0497 832 532,,,,,,,-31.4573548, 152.7317348
City Fix Plumbing,0400 215 213,,,55 Alexandra St,NSW,Drummoyne,2047,-33.851445, 151.157074
City Metro Plumbing,0411 501 060,,,,,,,-33.9421744, 151.1014508
City Plumbing Solutionsa,0420 974 069,,info@cityplumbingsolutions.com.au,,,,,-33.9522629, 151.0321372
CITY TO BUSH PLUMBING,0411 023 691,,,32 Rutledge St,NSW,Bungendore,2621,-35.257912, 149.441128
City Water Plumbing,0414 924 018,,,7 Rowley St,NSW,Burwood,2134,-33.871251, 151.099102
City West Plumbing,0488 218 999,,,,,,,-37.7226349, 144.7681224
City West Plumbing Pty Ltd,(02) 9873 4147,,,,,,,-33.7938818, 151.0413475
City Wide Group NSW,(02) 4295 3222,,,,,,,-34.5473035, 150.8617205
C.J. Brown Construction,(02) 9918 2856,,,33 Ruskin Row,NSW,Avalon Beach,2107,-33.637807, 151.318743
C J Hogan &amp; Co Pty Ltd,0418 199 690,,cjhogans@bigpond.com,,,,,
C . J. Honeysett,(02) 6884 7772,,cjhplumb@hotmail.com,,,,,-32.246403, 148.59125
C.J. Honeysett,(02) 6884 7772,,cjhplumb@hotmail.com,,,,,-32.246403, 148.59125
Cjm Plumbing &amp; Electrical,1300 132 720,,,3 Powers Ave,NSW,Alexandria,2015,-33.900772, 151.199206
C &amp; J O'Mara Plumbing,(02) 9548 5415,,cjplumbing@bigpond.com,110 Anzac Ave,NSW,Engadine,2233,-34.059939, 151.00576
C Kay Plumbing,0414 308 686,,ckayplumbing@bigpond.com,,,,,-33.785993, 150.7996598
Clarke Andrew Plumbing,0407 457 498,,,2 Albert St,NSW,Kempsey,2440,-31.08789, 152.82722
Clarke &amp; Frame Plumbing Pty Ltd,0418 251 489,,,32 Jackson St,NSW,Balgowlah,2093,-33.796004, 151.263737
Clarke Jeff Plumbing,0419 296 484,,,,,,,-34.2913676, 150.9447574
Clarke Plumbing Services,0417 657 570,,,,,,,-34.3142198, 148.2977066
Clarke Terry Plumbing,0417 542 641,,,,,,,-35.3093106, 150.4687934
Clark Mal Plumbing,(02) 9654 0014,,,,,,,-33.63182273, 150.96750132
Clark Plumbing &amp; Drainage,0403 596 808,,simon@clarkplumbinganddrainage.com.au,,,,,-34.3338628, 150.9133841
Classic Plumbing Services,0417 247 747,,,38 Govenors Way,NSW,Macquarie Links,2564,-33.9841666, 150.8704403
Clean and Clear Plumbing,1300 248 624,,cleanclearplumbing@gmail.com,,,,,-33.890626, 151.0223952
Cleanflo Plumbing,0421 384 484,,ben.l.rennie@gmail.com,4 Athol St,NSW,Toukley,2263,-33.268094, 151.54373
Clean Water Plumbing,0409 661 557,,,,,,,-33.061237, 151.5865898
Clear Away Plumbing Services,0466 578 378,,kyliedudley@hotmail.com,,,,,-34.4913577, 150.7811624
Clear Concept Plumbing,0437 778 742,,stevexuereb01@gmail.com,,,,,-33.7082906, 150.7520773
Clearflow Plumbing Services,0412 100 646,,,10 Pomona St,NSW,Pennant Hills,2120,-33.735776, 151.078048
CLEARFLOW Sewer &amp; Stormwater Clearing,0401 860 110,,Clearflownorthwest@gmail.com,3 Robert Gordon Rd,NSW,Gunnedah,2380,-31.011564, 150.211665
Clear Line Plumbing,0416 087 927,,,,,,,-33.7897031, 150.9961267
City-Wide Master Plumbing Pty Ltd,(02) 9972 0601,,,138 Anzac Ave,NSW,Collaroy Plateau,2097,-33.73597, 151.291125
CKP Plumbing &amp; Excavations,0407 839 072,,,,,,,-36.1125667, 144.7556279
Clayton Schofield,(02) 4325 7487,,schofield_plumbing@bigpond.com,46 Reeves St,NSW,Narara,2250,-33.40268, 151.335766
Clear's Plumbing &amp; Irrigation,0430 587 037,,,,,,,-30.9524519, 148.3886868
Clear Vision Plumbing Pty Ltd,0401 270 558,,info@clearvisionplumbing.com.au,7 Ivanhoe Pl,NSW,Macquarie Park,2113,-33.781871, 151.115481
CM Property Maintenance,0499 959 777,,,,,,,-33.8135042, 151.1057327
Coggan Plumbing Pty Ltd,(02) 4984 7977,,,70 Salamander Way,NSW,Salamander Bay,2317,-32.73765, 152.086549
Combat Plumbing,0417 299 410,,darren_mcneill@bigpond.com,,,,,-33.4055832, 151.4653367
Clearway Plumbing &amp; Drainage,0413 844 816,,clearwaypd@gmail.com,,,,,-33.3626284, 151.4478131
Clear Way Plumbing Pty Ltd,0414 443 350,,,8 Kembla St,NSW,Croydon Park,2133,-33.894151, 151.091834
Cleary Plumbing Services Pty Ltd,(02) 9894 8188,,,Gladstone Rd,NSW,Castle Hill,2154,-33.733328, 150.976781
Cleary Roy Plumbing,(02) 4229 2868,,,75 Crown St,NSW,Wollongong,2500,-34.426013, 150.898564
Clifford M J,(02) 4267 1140,,,12 Tasman Parade,NSW,Thirroul,2515,-34.320617, 150.923213
Clint Knight Plumbing,0434 272 198,,ckplumbing80@gmail.com,557 Greyfern Ct,NSW,Lavington,2641,-36.034816, 146.934867
Clint Lucas Plumbing,0432 599 384,,,19 Idaline St,NSW,Collaroy Plateau,2097,-33.73107, 151.294
CLM,0428 721 177,,,165 Church St,NSW,Mudgee,2850,-32.60445, 149.58645
Coast2Coast Plumbing,0407 740 109,,mjsayer@bigpond.com,PO Box 158,NSW,Urunga,2455,-30.4966295, 153.0207783
Coastal Plumbing Group,0431 751 790,,,,,,,-30.0958821, 153.1986894
Coastco Plumbing,0413 776 460,,coastco@bigpond.com,,,,,-33.08527239, 151.6329394
Coast &amp; Country Plumbing Pty Ltd,(02) 4351 4444,,info@coastandcountryplumbing.com.au,,,,,-33.30379407, 151.43136544
Coast Plumbing &amp; Drainage,0415 180 894,,coastpd@outlook.com,,,,,-33.3735506, 151.4869607
Cobra Plumbing &amp; Bathrooms,0435 065 511,,,,,,,-34.4241792, 150.8935489
Coffs Coast Plumbing,(02) 6656 4317,,coffscoastplumbing@bigpond.com,,,,,-30.2493106, 153.1277996
COG Plumbing,0424 309 955,,,,,,,-33.9118702, 151.1196356
Coleman Plumbing,(02) 4346 4288,,mail@colemanplumbing.net.au,,,,,-33.4676824, 151.3811221
Coleplumb,0419 421 839,,coleplumb@outlook.com,11 Mendel Dr,NSW,Kelso,2795,-33.395777, 149.601005
Colin J Williams Plumbing &amp; Gas,0434 273 726,,williams_colin@bigpond.com,,,,,-28.5533664, 153.4996042
Collins Michael J,0418 269 244,,,71 Thurlgona Rd,NSW,Engadine,2233,-34.050387, 151.010462
Collis Bros Plumbing pty Ltd,1300 655 895,,collisbrosplumbing@gmail.com,,,,,-33.7693178, 151.2921589
Collis Plumbing Service Pty Ltd,(02) 9529 5455,,,424 Rocky Point Rd,NSW,Sans Souci,2219,-33.988885, 151.134506
Colloroy Plumbing,1800 107 808,,,,,,,-33.67440769, 151.30090368
Commando Plumbing Solutions,0412 255 046,,james@commandoplumbingsolutions.com.au,,,,,-33.8747042, 150.8418394
Commercial Maintenance Pty Ltd,0408 467 323,,,,,,,-32.9397244, 151.6590533
Compare Plumbing Pty. Ltd.,1300 651 478,,,Unit 3 13 Smith St,NSW,Emu Plains,2750,-33.743829999999996, 150.67025
Complete Coast Plumbing Pty. Ltd.,0448 980 772,,info@completecoastplumbing.com.au,,,,,-33.5213638, 151.3183075
Complete Core Pty Ltd,0425 393 293,,,21 Princes St,NSW,Bexley,2207,-33.943035, 151.127765
Complete Plumbing and Gas Services,0438 696 358,,mark_dakes@yahoo.com.au,,,,,-33.723813, 150.4154072
Complete Plumbing &amp; Fire Pty Ltd,(02) 4229 5180,,accounts@cpfgroup.com.au,Unit 7, 124-130, Auburn St,NSW,Coniston,2500,-34.436735, 150.88696
Complete Plumbing &amp; Gas Fitting,0408 603 784,,,11 Julieanne St,NSW,Dapto,2530,-34.502566, 150.800888
CMF Plumbing,1300 304 463,,info@cmfplumbing.com.au,54 Lane Cove Rd,NSW,Ryde,2112,-33.806215, 151.110018
Cofield &amp; Co Plumbing &amp; Aircon,(02) 6033 1516,,cofieldplumbing@bigpond.com,7 Poseidon Rd,NSW,Corowa,2646,-35.988579, 146.363655
COL'S PLUMBING AND FARM SERVICES,0428 297 948,,,21 Twomey's Lane,NSW,Bombowlee,2720,-35.272585, 148.246175
Complete Plumbing Solutions Est 2021,0419 294 225,,admin@completeplumbingsolution.net,1 Craig St,NSW,Goulburn,2580,-34.752144, 149.72498
Complex Plumbing &amp; Maintenance,(02) 6299 4343,,,Unit 1/ 18 Shropshire St,NSW,Queanbeyan East,2620,-35.339023, 149.239752
Connected Pro Plumbing Solutions,0403 682 660,,ycppsolutions@iinet.net.au,,,,,-34.3887091, 150.8780985
Cookies Plumbing Services,0416 153 661,,,,,,,-34.0231688, 150.8041431
Corbys Plumbing &amp; Gas,0432 626 159,,nathancorby@me.com,,,,,-36.2352845, 149.1252802
Concord Plumbing Services,0427 121 800,,,,,,,-33.8438042, 151.1166505
Concord West Plumbing Services,0419 212 864,,,159 Queen St,NSW,Concord West,2138,-33.854826, 151.08797
Condon Plumbing,0427 634 236,,greg@condonplumbing.com.au,52 Ross Cres,NSW,Griffith,2680,-34.279182, 146.062354
Confident Plumbing,0458 604 527,,Info@confidentplumbing.com.au,,,,,-33.6349133, 150.7892219
Confident Plumbing Pty Ltd,0429 961 155,,info@confidentplumbing.com.au,,,,,-33.6075314, 150.819451
Connected Plumbing Solutions - Industrial And Home Plumbing,0422 985 934,,,,,,,-34.04013497, 151.14090406
Connors Plumbing Services Pty Ltd,0414 801 403,,connorsplumbing@optusnet.com,16 Narooma Dr,NSW,Ocean Shores,2483,-28.518347, 153.542927
Conomos Plumbing,(02) 9939 8135,,,,,,,
Consolidated Plumbing,(02) 9631 3642,,,,,,,-33.8078975, 150.971758
Constantly Plumbing,0430 192 292,,,,,,,-33.9420292, 151.2383355
Contemporary Plumbing &amp; Gas Pty Ltd,0409 722 393,,enquiries@cpandg.com.au,,,,,-32.8768318, 151.6394614
Control Plumbing Pty Ltd,0410 329 369,,,,,,,-33.8704551, 151.268307
Coo-ee Plumbing,0417 777 789,,cooeeben@hotmail.com,6 Garside Rd,NSW,Mollymook Beach,2539,-35.329795, 150.47323
Cook's Plumbing Supplies,(02) 8336 2300,,botany@cooksplumbing.com.au,2 Greenfield St,NSW,Banksmeadow,2019,-33.957635, 151.208836
Coolamon Plumbing Service,(02) 6927 3466,,,RMB 200 Millwood Rd,NSW,Coolamon,2701,-34.979961, 147.152656
Coolamon Plumbing Services,(02) 6927 2500,,,48 Cowabbie St,NSW,Coolamon,2701,-34.820106, 147.201792
Coolibah Plumbing,0458 303 030,,,,,,,-33.87276349, 151.2053446
Cooper Bruce P.,0414 333 461,,,23 Keats Rd,NSW,North Turramurra,2074,-33.71929, 151.147491
Cooper G.J. &amp; D.J.,0412 767 126,,cooperplumb@bigpond.com,,,,,-33.932892, 150.811945
Cooper Russell Plumbing,(02) 6026 0666,,,11 Sarah St,NSW,Gerogery West,2642,-35.877351, 146.957392
Copacabana Plumbing Services,0418 437 243,,copaplumbing@hotmail.com,7 Ladera Dr,NSW,Copacabana,2251,-33.488628, 151.428685
Corey Wilson Plumbing,0413 189 519,,cw.plumbing@bigpond.com,PO Box 1180,NSW,Camden,2570,-34.0542781, 150.6956331
Corindi/Red Rock Plumbing and Metal Roofing,0411 130 945,,,,,,,-29.9838598, 153.2280487
Cornerstone Plumbing Solutions,0416 093 094,,,,,,,-34.0542781, 150.6956331
Correct Care Plumbing,0491 310 855,,joshcooney6@gmail.com,,,,,
Costello N &amp; R Plumbing Service,0458 031 111,,,,,,,-34.3552463, 150.900846
Cotts Plumbing,0418 226 489,,cottsplumbing@mail.com,2 28 Hooper St,NSW,Randwick,2031,-33.905259, 151.250764
Cookies Plumbing &amp; Gas,0402 490 017,,,,,,,-35.1147668, 147.3696159
Coral Plumbing Group,0411 785 852,,jack@coralplumbinggroup.com.au,,,,,-32.7407806, 151.8636304
Country Combat Plumbing,0411 782 944,,davidfrendin@bigpond.com.au,,,,,-31.0225898, 151.0696364
Craig Lanston Plumbing,0418 192 944,,,,,,,-28.3289722, 153.5689872
Create Plumbing &amp; Gasfitting,0402 377 231,,jason@createplumbingandgasfitting.com.au,,,,,-35.7084221, 150.1775926
Cronulla-Shire Plumbing,0416 276 696,,vudu@optusnet.com.au,2 Darook Park Rd,NSW,Cronulla,2230,-34.06534, 151.1479
Country Road Plumbing Pty Ltd,0411 343 693,,,PO Box 7540,NSW,Bondi Beach,2026,-33.8908435, 151.2742906
Countryside Plumbing,1300 128 273,,,1375 Werombi Rd,NSW,Werombi,2570,-33.986119, 150.595867
Cowra Gas Service,0427 100 072,,,,,,,-33.8347435, 148.6915923
C Plumbing and Gas,0404 929 106,,charlie@cplumbingandgas.com,,,,,
C &amp; P Plumbing Service,(02) 9642 7349,,,,,,,-33.9024566, 151.0837311
CPY Plumbing,0450 050 186,,carter@cpyplumbing.com,,,,,-33.90266885, 151.02213632
Craig Chappelow Plumbing &amp; Building,0423 307 891,,craig@craigchappelow.com.au,2 Sixth Ave,NSW,Jannali,2226,-34.011124, 151.072847
Craig Marland Plumbing,0412 044 135,,,,,,,-35.0921145, 150.5975695
Craig Marland Plumbing Services,(02) 4480 2251,,marlandplumbing@iinet.net.au,,,,,-34.7753746, 150.6951882
Craig Morris Plumbing,0438 670 507,,,,,,,-33.4856715, 151.3247616
Craig Simon Plumbing Pty Ltd,0414 469 050,,info@csplumbing.com.au,Unit 40 7-9 Production Rd,NSW,Taren Point,2229,-34.020868, 151.125007
